location,city,country,utc,local,parameter,value,unit,latitude,longitude,attribution
San Jose - Jackson S,San Jose-Sunnyvale-Santa Clara,US,2017-02-28T08:00:00.000Z,2017-02-28T00:00:00-08:00,pm25,6,µg/m³,37.3483,-121.8947,"[{""name"":""US EPA AirNow"",""url"":""http://www.airnow.gov/""},{""name"":""San Francisco Bay Area AQMD""}]"
Troost,Kansas City,US,2017-02-28T08:00:00.000Z,2017-02-28T02:00:00-06:00,pm25,16.5,µg/m³,39.10465,-94.57055,"[{""name"":""US EPA AirNow"",""url"":""http://www.airnow.gov/""},{""name"":""Missouri Department of Natural Resources""}]"
Denver - NJH - 14th,Denver-Aurora,US,2017-02-28T08:00:00.000Z,2017-02-28T01:00:00-07:00,pm25,4.2,µg/m³,39.7386,-104.9394,"[{""name"":""US EPA AirNow"",""url"":""http://www.airnow.gov/""},{""name"":""Colorado Department of Public Health and Environment""}]"
Greeley Hospital,Greeley,US,2017-02-28T08:00:00.000Z,2017-02-28T01:00:00-07:00,pm25,0.8,µg/m³,40.4147,-104.7061,"[{""name"":""US EPA AirNow"",""url"":""http://www.airnow.gov/""},{""name"":""Colorado Department of Public Health and Environment""}]"
CARPENTER,Des Moines,US,2017-02-28T08:00:00.000Z,2017-02-28T02:00:00-06:00,pm25,14,µg/m³,41.6031,-93.643303,"[{""name"":""US EPA AirNow"",""url"":""http://www.airnow.gov/""},{""name"":""Polk Co. Air Quality Division""}]"
Heritage Park,Kansas City,US,2017-02-28T08:00:00.000Z,2017-02-28T02:00:00-06:00,pm25,16,µg/m³,38.8386,-94.7464,"[{""name"":""US EPA AirNow"",""url"":""http://www.airnow.gov/""},{""name"":""Kansas Dept. of Health and Environment""}]"
Bellingham-Yew St,Bellingham,US,2017-02-28T08:00:00.000Z,2017-02-28T00:00:00-08:00,pm25,6.6,µg/m³,48.762699,-122.440201,"[{""name"":""US EPA AirNow"",""url"":""http://www.airnow.gov/""},{""name"":""Washington Department of Ecology""}]"
Moses Lake-Balsam St,Moses Lake,US,2017-02-28T08:00:00.000Z,2017-02-28T00:00:00-08:00,pm25,6.8,µg/m³,47.1303,-119.2726,"[{""name"":""US EPA AirNow"",""url"":""http://www.airnow.gov/""},{""name"":""Washington Department of Ecology""}]"
Ritzville-Alder St,ADAMS,US,2017-02-28T08:00:00.000Z,2017-02-28T00:00:00-08:00,pm25,1.4,µg/m³,47.127998,-118.381897,"[{""name"":""US EPA AirNow"",""url"":""http://www.airnow.gov/""},{""name"":""Washington Department of Ecology""}]"
Rosalia-Josephine St,Pullman,US,2017-02-28T08:00:00.000Z,2017-02-28T00:00:00-08:00,pm25,2.3,µg/m³,47.2313,-117.3685,"[{""name"":""US EPA AirNow"",""url"":""http://www.airnow.gov/""},{""name"":""Washington Department of Ecology""}]"
Pullman-Dexter Ave,Pullman,US,2017-02-28T08:00:00.000Z,2017-02-28T00:00:00-08:00,pm25,1.2,µg/m³,46.7245,-117.1801,"[{""name"":""US EPA AirNow"",""url"":""http://www.airnow.gov/""},{""name"":""Washington Department of Ecology""}]"
Seattle-South Park,Seattle-Tacoma-Bellevue,US,2017-02-28T08:00:00.000Z,2017-02-28T00:00:00-08:00,pm25,8.9,µg/m³,47.5309,-122.3208,"[{""name"":""US EPA AirNow"",""url"":""http://www.airnow.gov/""},{""name"":""Washington Department of Ecology""}]"
Lone Pine Paiute/Sho,Bishop,US,2017-02-28T08:00:00.000Z,2017-02-28T00:00:00-08:00,pm25,3.9,µg/m³,36.5975,-118.04,"[{""name"":""US EPA AirNow"",""url"":""http://www.airnow.gov/""},{""name"":""Tribal Environmental Exchange Network""}]"
Lebanon,Cincinnati-Middletown,US,2017-02-28T08:00:00.000Z,2017-02-28T03:00:00-05:00,pm25,6.2,µg/m³,39.42689,-84.20077,"[{""name"":""US EPA AirNow"",""url"":""http://www.airnow.gov/""},{""name"":""Ohio EPA-DAPC""}]"
HICKORY,Hickory-Lenoir-Morganton,US,2017-02-28T08:00:00.000Z,2017-02-28T03:00:00-05:00,pm25,16,µg/m³,35.73,-81.37,"[{""name"":""US EPA AirNow"",""url"":""http://www.airnow.gov/""},{""name"":""North Carolina DEQ - Divison of Air Quality""}]"
Mesa-Pepoit Way (tem,Kennewick-Richland-Pasco,US,2017-02-28T08:00:00.000Z,2017-02-28T00:00:00-08:00,pm25,1.1,µg/m³,46.5754,-119.0021,"[{""name"":""US EPA AirNow"",""url"":""http://www.airnow.gov/""},{""name"":""Washington Department of Ecology""}]"
Bellevue-Bellevue Wa,Seattle-Tacoma-Bellevue,US,2017-02-28T08:00:00.000Z,2017-02-28T00:00:00-08:00,pm25,4.6,µg/m³,47.613,-122.2017,"[{""name"":""US EPA AirNow"",""url"":""http://www.airnow.gov/""},{""name"":""Washington Department of Ecology""}]"
Walla Walla-12th St,Walla Walla,US,2017-02-28T08:00:00.000Z,2017-02-28T00:00:00-08:00,pm25,0,µg/m³,46.0588,-118.3514,"[{""name"":""US EPA AirNow"",""url"":""http://www.airnow.gov/""},{""name"":""Washington Department of Ecology""}]"
Montclaire,Charlotte-Gastonia-Concord,US,2017-02-28T08:00:00.000Z,2017-02-28T03:00:00-05:00,pm25,10.5,µg/m³,35.1514,-80.8669,"[{""name"":""US EPA AirNow"",""url"":""http://www.airnow.gov/""},{""name"":""Mecklenburg County Air Quality""}]"
Oakridge - Willamett,Eugene-Springfield,US,2017-02-28T08:00:00.000Z,2017-02-28T00:00:00-08:00,pm25,14.2,µg/m³,43.74436,-122.480506,"[{""name"":""US EPA AirNow"",""url"":""http://www.airnow.gov/""},{""name"":""Lane Regional Air Protection Agency""}]"
Yosemite Village - V,MARIPOSA,US,2017-02-28T08:00:00.000Z,2017-02-28T00:00:00-08:00,pm25,8,µg/m³,37.7486,-119.5869,"[{""name"":""US EPA AirNow"",""url"":""http://www.airnow.gov/""},{""name"":""California Air Resources Board""}]"
Flemington,New York-Northern New Jersey-Long Island,US,2017-02-28T08:00:00.000Z,2017-02-28T03:00:00-05:00,pm25,9.5,µg/m³,40.515251,-74.806755,"[{""name"":""US EPA AirNow"",""url"":""http://www.airnow.gov/""},{""name"":""New Jersey Dept. of Environmental Protection""}]"
MCADORY,Birmingham-Hoover,US,2017-02-28T08:00:00.000Z,2017-02-28T02:00:00-06:00,pm25,9.1,µg/m³,33.3311,-87.0036,"[{""name"":""US EPA AirNow"",""url"":""http://www.airnow.gov/""},{""name"":""Jefferson County Department of Health""}]"
HOOVER,Birmingham-Hoover,US,2017-02-28T08:00:00.000Z,2017-02-28T02:00:00-06:00,pm25,7.4,µg/m³,33.3864,-86.8167,"[{""name"":""US EPA AirNow"",""url"":""http://www.airnow.gov/""},{""name"":""Jefferson County Department of Health""}]"
CORNER,Birmingham-Hoover,US,2017-02-28T08:00:00.000Z,2017-02-28T02:00:00-06:00,pm25,12.3,µg/m³,33.8017,-86.9425,"[{""name"":""US EPA AirNow"",""url"":""http://www.airnow.gov/""},{""name"":""Jefferson County Department of Health""}]"
Children's Park Site,Tucson,US,2017-02-28T08:00:00.000Z,2017-02-28T01:00:00-07:00,pm25,2,µg/m³,32.2953,-110.9822,"[{""name"":""US EPA AirNow"",""url"":""http://www.airnow.gov/""},{""name"":""Pima County Department of Environmental Quality""}]"
MARION,Memphis,US,2017-02-28T08:00:00.000Z,2017-02-28T02:00:00-06:00,pm25,5.3,µg/m³,35.1967,-90.1911,"[{""name"":""US EPA AirNow"",""url"":""http://www.airnow.gov/""},{""name"":""Arkansas Department of Environmental Quality""}]"
PARR,Little Rock-North Little Rock,US,2017-02-28T08:00:00.000Z,2017-02-28T02:00:00-06:00,pm25,4.9,µg/m³,34.7561,-92.2758,"[{""name"":""US EPA AirNow"",""url"":""http://www.airnow.gov/""},{""name"":""Arkansas Department of Environmental Quality""}]"
Livermore - Rincon,San Francisco-Oakland-Fremont,US,2017-02-28T08:00:00.000Z,2017-02-28T00:00:00-08:00,pm25,6,µg/m³,37.687526,-121.784217,"[{""name"":""US EPA AirNow"",""url"":""http://www.airnow.gov/""},{""name"":""San Francisco Bay Area AQMD""}]"
Gridley,Chico,US,2017-02-28T08:00:00.000Z,2017-02-28T00:00:00-08:00,pm25,13,µg/m³,39.32756,-121.66881,"[{""name"":""US EPA AirNow"",""url"":""http://www.airnow.gov/""},{""name"":""California Air Resources Board""}]"
San Andreas,CALAVERAS,US,2017-02-28T08:00:00.000Z,2017-02-28T00:00:00-08:00,pm25,16,µg/m³,38.2019,-120.680603,"[{""name"":""US EPA AirNow"",""url"":""http://www.airnow.gov/""},{""name"":""California Air Resources Board""}]"
Colusa - Sunrise Blv,COLUSA,US,2017-02-28T08:00:00.000Z,2017-02-28T00:00:00-08:00,pm25,1,µg/m³,39.2031,-122.0169,"[{""name"":""US EPA AirNow"",""url"":""http://www.airnow.gov/""},{""name"":""California Air Resources Board""}]"
Concord,San Francisco-Oakland-Fremont,US,2017-02-28T08:00:00.000Z,2017-02-28T00:00:00-08:00,pm25,3,µg/m³,37.9383,-122.025,"[{""name"":""US EPA AirNow"",""url"":""http://www.airnow.gov/""},{""name"":""San Francisco Bay Area AQMD""}]"
Mojave - 923 Poole S,Bakersfield,US,2017-02-28T08:00:00.000Z,2017-02-28T00:00:00-08:00,pm25,3,µg/m³,35.0506,-118.1464,"[{""name"":""US EPA AirNow"",""url"":""http://www.airnow.gov/""},{""name"":""California Air Resources Board""}]"
Bakersfield - Califo,Bakersfield,US,2017-02-28T08:00:00.000Z,2017-02-28T00:00:00-08:00,pm25,11,µg/m³,35.3561,-119.0403,"[{""name"":""US EPA AirNow"",""url"":""http://www.airnow.gov/""},{""name"":""California Air Resources Board""}]"
San Rafael,San Francisco-Oakland-Fremont,US,2017-02-28T08:00:00.000Z,2017-02-28T00:00:00-08:00,pm25,3,µg/m³,37.9722,-122.5189,"[{""name"":""US EPA AirNow"",""url"":""http://www.airnow.gov/""},{""name"":""San Francisco Bay Area AQMD""}]"
WIllits Justice Cent,Ukiah,US,2017-02-28T08:00:00.000Z,2017-02-28T00:00:00-08:00,pm25,9,µg/m³,39.411743,-123.352661,"[{""name"":""US EPA AirNow"",""url"":""http://www.airnow.gov/""},{""name"":""Mendocino County AQMD""}]"
Napa - Jefferson St,Napa,US,2017-02-28T08:00:00.000Z,2017-02-28T00:00:00-08:00,pm25,17,µg/m³,38.3108,-122.295,"[{""name"":""US EPA AirNow"",""url"":""http://www.airnow.gov/""},{""name"":""San Francisco Bay Area AQMD""}]"
Roseville - N.Sunris,Sacramento--Arden-Arcade--Roseville,US,2017-02-28T08:00:00.000Z,2017-02-28T00:00:00-08:00,pm25,3,µg/m³,38.7458,-121.2653,"[{""name"":""US EPA AirNow"",""url"":""http://www.airnow.gov/""},{""name"":""California Air Resources Board""}]"
Fond du Lac,CARLTON,US,2017-02-28T08:00:00.000Z,2017-02-28T02:00:00-06:00,pm25,5,µg/m³,46.713694,-92.511722,"[{""name"":""US EPA AirNow"",""url"":""http://www.airnow.gov/""},{""name"":""Minnesota Pollution Control Agency""}]"
Ojai - Ojai Ave.,Oxnard-Thousand Oaks-Ventura,US,2017-02-28T08:00:00.000Z,2017-02-28T00:00:00-08:00,pm25,12,µg/m³,34.4483,-119.2303,"[{""name"":""US EPA AirNow"",""url"":""http://www.airnow.gov/""},{""name"":""Ventura County  APCD""}]"
Simi Valley - Cochra,Oxnard-Thousand Oaks-Ventura,US,2017-02-28T08:00:00.000Z,2017-02-28T00:00:00-08:00,pm25,8,µg/m³,34.2775,-118.6847,"[{""name"":""US EPA AirNow"",""url"":""http://www.airnow.gov/""},{""name"":""Ventura County  APCD""}]"
El Rio - Rio Mesa Sc,Oxnard-Thousand Oaks-Ventura,US,2017-02-28T08:00:00.000Z,2017-02-28T00:00:00-08:00,pm25,3,µg/m³,34.2653,-119.1336,"[{""name"":""US EPA AirNow"",""url"":""http://www.airnow.gov/""},{""name"":""Ventura County  APCD""}]"
Davis - UCD Campus,Sacramento--Arden-Arcade--Roseville,US,2017-02-28T08:00:00.000Z,2017-02-28T00:00:00-08:00,pm25,4,µg/m³,38.53455,-121.7734,"[{""name"":""US EPA AirNow"",""url"":""http://www.airnow.gov/""},{""name"":""California Air Resources Board""}]"
Boulder - CU - 2102,Boulder,US,2017-02-28T08:00:00.000Z,2017-02-28T01:00:00-07:00,pm25,0.9,µg/m³,40.0128,-105.2667,"[{""name"":""US EPA AirNow"",""url"":""http://www.airnow.gov/""},{""name"":""Colorado Department of Public Health and Environment""}]"
Denver - CAMP - 2105,Denver-Aurora,US,2017-02-28T08:00:00.000Z,2017-02-28T01:00:00-07:00,pm25,1.8,µg/m³,39.751099,-104.987198,"[{""name"":""US EPA AirNow"",""url"":""http://www.airnow.gov/""},{""name"":""Colorado Department of Public Health and Environment""}]"
Rider University,Trenton-Ewing,US,2017-02-28T08:00:00.000Z,2017-02-28T03:00:00-05:00,pm25,10.5,µg/m³,40.283092,-74.742645,"[{""name"":""US EPA AirNow"",""url"":""http://www.airnow.gov/""},{""name"":""New Jersey Dept. of Environmental Protection""}]"
Rutgers University,New York-Northern New Jersey-Long Island,US,2017-02-28T08:00:00.000Z,2017-02-28T03:00:00-05:00,pm25,9.5,µg/m³,40.462181,-74.429436,"[{""name"":""US EPA AirNow"",""url"":""http://www.airnow.gov/""},{""name"":""New Jersey Dept. of Environmental Protection""}]"
Elizabeth Trailer,New York-Northern New Jersey-Long Island,US,2017-02-28T08:00:00.000Z,2017-02-28T03:00:00-05:00,pm25,15.7,µg/m³,40.641441,-74.208366,"[{""name"":""US EPA AirNow"",""url"":""http://www.airnow.gov/""},{""name"":""New Jersey Dept. of Environmental Protection""}]"
Del Norte,Albuquerque,US,2017-02-28T08:00:00.000Z,2017-02-28T01:00:00-07:00,pm25,5.9,µg/m³,35.1353,-106.584702,"[{""name"":""US EPA AirNow"",""url"":""http://www.airnow.gov/""},{""name"":""Albuquerque Environmental Health Department""}]"
Tramway,Albuquerque,US,2017-02-28T08:00:00.000Z,2017-02-28T01:00:00-07:00,pm25,3.3,µg/m³,35.185,-106.5077,"[{""name"":""US EPA AirNow"",""url"":""http://www.airnow.gov/""},{""name"":""Albuquerque Environmental Health Department""}]"
LEGGETT,Rocky Mount,US,2017-02-28T08:00:00.000Z,2017-02-28T03:00:00-05:00,pm25,8,µg/m³,35.9889,-77.5867,"[{""name"":""US EPA AirNow"",""url"":""http://www.airnow.gov/""},{""name"":""North Carolina DEQ - Divison of Air Quality""}]"
HATTIEAVEN,Winston-Salem,US,2017-02-28T08:00:00.000Z,2017-02-28T03:00:00-05:00,pm25,10.9,µg/m³,36.1106,-80.2267,"[{""name"":""US EPA AirNow"",""url"":""http://www.airnow.gov/""},{""name"":""Forsyth County Office of Environmental Assistance and Protection""}]"
JOHNSTON,Raleigh-Cary,US,2017-02-28T08:00:00.000Z,2017-02-28T03:00:00-05:00,pm25,6,µg/m³,35.5,-78.4375,"[{""name"":""US EPA AirNow"",""url"":""http://www.airnow.gov/""},{""name"":""North Carolina DEQ - Divison of Air Quality""}]"
GARINGER,Charlotte-Gastonia-Concord,US,2017-02-28T08:00:00.000Z,2017-02-28T03:00:00-05:00,pm25,14,µg/m³,35.2411,-80.7831,"[{""name"":""US EPA AirNow"",""url"":""http://www.airnow.gov/""},{""name"":""Mecklenburg County Air Quality""}]"
CASTLE H,Wilmington,US,2017-02-28T08:00:00.000Z,2017-02-28T03:00:00-05:00,pm25,3.6,µg/m³,34.3561,-77.8617,"[{""name"":""US EPA AirNow"",""url"":""http://www.airnow.gov/""},{""name"":""North Carolina DEQ - Divison of Air Quality""}]"
BRYSON,SWAIN,US,2017-02-28T08:00:00.000Z,2017-02-28T03:00:00-05:00,pm25,15.5,µg/m³,35.4356,-83.4436,"[{""name"":""US EPA AirNow"",""url"":""http://www.airnow.gov/""},{""name"":""North Carolina DEQ - Divison of Air Quality""}]"
Millbrook NCore,Raleigh-Cary,US,2017-02-28T08:00:00.000Z,2017-02-28T03:00:00-05:00,pm25,6.7,µg/m³,35.856098,-78.574203,"[{""name"":""US EPA AirNow"",""url"":""http://www.airnow.gov/""},{""name"":""North Carolina DEQ - Divison of Air Quality""}]"
Dunn Center,DUNN,US,2017-02-28T08:00:00.000Z,2017-02-28T01:00:00-07:00,pm25,16.1,µg/m³,47.320301,-102.526398,"[{""name"":""US EPA AirNow"",""url"":""http://www.airnow.gov/""},{""name"":""North Dakota Department of Health""}]"
Sycamore,Cincinnati-Middletown,US,2017-02-28T08:00:00.000Z,2017-02-28T03:00:00-05:00,pm25,6.5,µg/m³,39.2787,-84.36612,"[{""name"":""US EPA AirNow"",""url"":""http://www.airnow.gov/""},{""name"":""Ohio EPA-DAPC""}]"
Colerain,Cincinnati-Middletown,US,2017-02-28T08:00:00.000Z,2017-02-28T03:00:00-05:00,pm25,3.7,µg/m³,39.21494,-84.69086,"[{""name"":""US EPA AirNow"",""url"":""http://www.airnow.gov/""},{""name"":""Ohio EPA-DAPC""}]"
Taft,Cincinnati-Middletown,US,2017-02-28T08:00:00.000Z,2017-02-28T03:00:00-05:00,pm25,12.6,µg/m³,39.12886,-84.50404,"[{""name"":""US EPA AirNow"",""url"":""http://www.airnow.gov/""},{""name"":""Ohio EPA-DAPC""}]"
Erie,Toledo,US,2017-02-28T08:00:00.000Z,2017-02-28T03:00:00-05:00,pm25,6.7,µg/m³,41.644067,-83.54625,"[{""name"":""US EPA AirNow"",""url"":""http://www.airnow.gov/""},{""name"":""Ohio EPA-DAPC""}]"
East High School,Akron,US,2017-02-28T08:00:00.000Z,2017-02-28T03:00:00-05:00,pm25,13.9,µg/m³,41.063526,-81.468956,"[{""name"":""US EPA AirNow"",""url"":""http://www.airnow.gov/""},{""name"":""Ohio EPA-DAPC""}]"
Moore,Oklahoma City,US,2017-02-28T08:00:00.000Z,2017-02-28T02:00:00-06:00,pm25,17.4,µg/m³,35.32,-97.4883,"[{""name"":""US EPA AirNow"",""url"":""http://www.airnow.gov/""},{""name"":""Oklahoma Department of Environmental Quality""}]"
North OKC,Oklahoma City,US,2017-02-28T08:00:00.000Z,2017-02-28T02:00:00-06:00,pm25,15.7,µg/m³,35.612801,-97.472198,"[{""name"":""US EPA AirNow"",""url"":""http://www.airnow.gov/""},{""name"":""Oklahoma Department of Environmental Quality""}]"
Glenpool,Tulsa,US,2017-02-28T08:00:00.000Z,2017-02-28T02:00:00-06:00,pm25,15.1,µg/m³,35.9525,-96.0033,"[{""name"":""US EPA AirNow"",""url"":""http://www.airnow.gov/""},{""name"":""Oklahoma Department of Environmental Quality""}]"
Eugene - Amazon Park,Eugene-Springfield,US,2017-02-28T08:00:00.000Z,2017-02-28T00:00:00-08:00,pm25,0.9,µg/m³,44.0263,-123.08377,"[{""name"":""US EPA AirNow"",""url"":""http://www.airnow.gov/""},{""name"":""Lane Regional Air Protection Agency""}]"
BAPC 301 39TH STREET,Pittsburgh,US,2017-02-28T08:00:00.000Z,2017-02-28T03:00:00-05:00,pm25,14,µg/m³,40.4656,-79.9611,"[{""name"":""US EPA AirNow"",""url"":""http://www.airnow.gov/""},{""name"":""Allegheny County""}]"
KITT,Pittsburgh,US,2017-02-28T08:00:00.000Z,2017-02-28T03:00:00-05:00,pm25,17.3,µg/m³,40.8142,-79.565,"[{""name"":""US EPA AirNow"",""url"":""http://www.airnow.gov/""},{""name"":""Pennsylvania Dept. of Environmental Protection""}]"
BEAV,Pittsburgh,US,2017-02-28T08:00:00.000Z,2017-02-28T03:00:00-05:00,pm25,12.9,µg/m³,40.747799,-80.316704,"[{""name"":""US EPA AirNow"",""url"":""http://www.airnow.gov/""},{""name"":""Pennsylvania Dept. of Environmental Protection""}]"
ALTO,Altoona,US,2017-02-28T08:00:00.000Z,2017-02-28T03:00:00-05:00,pm25,17.5,µg/m³,40.515,-78.3889,"[{""name"":""US EPA AirNow"",""url"":""http://www.airnow.gov/""},{""name"":""Pennsylvania Dept. of Environmental Protection""}]"
JOHN,Johnstown,US,2017-02-28T08:00:00.000Z,2017-02-28T03:00:00-05:00,pm25,22.5,µg/m³,40.3097,-78.9158,"[{""name"":""US EPA AirNow"",""url"":""http://www.airnow.gov/""},{""name"":""Pennsylvania Dept. of Environmental Protection""}]"
STAT,State College,US,2017-02-28T08:00:00.000Z,2017-02-28T03:00:00-05:00,pm25,3.6,µg/m³,40.8114,-77.8769,"[{""name"":""US EPA AirNow"",""url"":""http://www.airnow.gov/""},{""name"":""Pennsylvania Dept. of Environmental Protection""}]"
HARR,Harrisburg-Carlisle,US,2017-02-28T08:00:00.000Z,2017-02-28T03:00:00-05:00,pm25,21.1,µg/m³,40.246992,-76.846988,"[{""name"":""US EPA AirNow"",""url"":""http://www.airnow.gov/""},{""name"":""Pennsylvania Dept. of Environmental Protection""}]"
CHES,Philadelphia-Camden-Wilmington,US,2017-02-28T08:00:00.000Z,2017-02-28T03:00:00-05:00,pm25,11.2,µg/m³,39.8356,-75.3725,"[{""name"":""US EPA AirNow"",""url"":""http://www.airnow.gov/""},{""name"":""Pennsylvania Dept. of Environmental Protection""}]"
HOLB,GREENE,US,2017-02-28T08:00:00.000Z,2017-02-28T03:00:00-05:00,pm25,7.9,µg/m³,39.82,-80.2897,"[{""name"":""US EPA AirNow"",""url"":""http://www.airnow.gov/""},{""name"":""Pennsylvania Dept. of Environmental Protection""}]"
ERIE,Erie,US,2017-02-28T08:00:00.000Z,2017-02-28T03:00:00-05:00,pm25,7.4,µg/m³,42.1428,-80.0372,"[{""name"":""US EPA AirNow"",""url"":""http://www.airnow.gov/""},{""name"":""Pennsylvania Dept. of Environmental Protection""}]"
SCRA,Scranton--Wilkes-Barre,US,2017-02-28T08:00:00.000Z,2017-02-28T03:00:00-05:00,pm25,10.1,µg/m³,41.4428,-75.6231,"[{""name"":""US EPA AirNow"",""url"":""http://www.airnow.gov/""},{""name"":""Pennsylvania Dept. of Environmental Protection""}]"
Farrell - PA,Youngstown-Warren-Boardman,US,2017-02-28T08:00:00.000Z,2017-02-28T03:00:00-05:00,pm25,21.4,µg/m³,41.215,-80.485,"[{""name"":""US EPA AirNow"",""url"":""http://www.airnow.gov/""},{""name"":""Pennsylvania Dept. of Environmental Protection""}]"
FREE,Allentown-Bethlehem-Easton,US,2017-02-28T08:00:00.000Z,2017-02-28T03:00:00-05:00,pm25,21.7,µg/m³,40.6281,-75.3411,"[{""name"":""US EPA AirNow"",""url"":""http://www.airnow.gov/""},{""name"":""Pennsylvania Dept. of Environmental Protection""}]"
CHAR,Pittsburgh,US,2017-02-28T08:00:00.000Z,2017-02-28T03:00:00-05:00,pm25,11.2,µg/m³,40.1469,-79.9033,"[{""name"":""US EPA AirNow"",""url"":""http://www.airnow.gov/""},{""name"":""Pennsylvania Dept. of Environmental Protection""}]"
WASH,Pittsburgh,US,2017-02-28T08:00:00.000Z,2017-02-28T03:00:00-05:00,pm25,12.1,µg/m³,40.17,-80.2617,"[{""name"":""US EPA AirNow"",""url"":""http://www.airnow.gov/""},{""name"":""Pennsylvania Dept. of Environmental Protection""}]"
FLOR,Pittsburgh,US,2017-02-28T08:00:00.000Z,2017-02-28T03:00:00-05:00,pm25,2.6,µg/m³,40.4447,-80.42,"[{""name"":""US EPA AirNow"",""url"":""http://www.airnow.gov/""},{""name"":""Pennsylvania Dept. of Environmental Protection""}]"
GREE,Pittsburgh,US,2017-02-28T08:00:00.000Z,2017-02-28T03:00:00-05:00,pm25,20.2,µg/m³,40.3053,-79.5061,"[{""name"":""US EPA AirNow"",""url"":""http://www.airnow.gov/""},{""name"":""Pennsylvania Dept. of Environmental Protection""}]"
YORK,York-Hanover,US,2017-02-28T08:00:00.000Z,2017-02-28T03:00:00-05:00,pm25,16,µg/m³,39.9653,-76.6994,"[{""name"":""US EPA AirNow"",""url"":""http://www.airnow.gov/""},{""name"":""Pennsylvania Dept. of Environmental Protection""}]"
W Greenwich,Providence-New Bedford-Fall River,US,2017-02-28T08:00:00.000Z,2017-02-28T03:00:00-05:00,pm25,7,µg/m³,41.615,-71.7197,"[{""name"":""US EPA AirNow"",""url"":""http://www.airnow.gov/""},{""name"":""Rhode Island Dept. of Environmental Management""}]"
Ashton,Walterboro,US,2017-02-28T08:00:00.000Z,2017-02-28T03:00:00-05:00,pm25,5,µg/m³,33.007801,-80.964996,"[{""name"":""US EPA AirNow"",""url"":""http://www.airnow.gov/""},{""name"":""South Carolina DHEC""}]"
Trenton,Augusta-Richmond County,US,2017-02-28T08:00:00.000Z,2017-02-28T03:00:00-05:00,pm25,15.6,µg/m³,33.7397,-81.8536,"[{""name"":""US EPA AirNow"",""url"":""http://www.airnow.gov/""},{""name"":""South Carolina DHEC""}]"
Long Creek,Seneca,US,2017-02-28T08:00:00.000Z,2017-02-28T03:00:00-05:00,pm25,6.6,µg/m³,34.805,-83.237503,"[{""name"":""US EPA AirNow"",""url"":""http://www.airnow.gov/""},{""name"":""South Carolina DHEC""}]"
AIR LAB,Knoxville,US,2017-02-28T08:00:00.000Z,2017-02-28T03:00:00-05:00,pm25,18.6,µg/m³,35.9803,-83.9306,"[{""name"":""US EPA AirNow"",""url"":""http://www.airnow.gov/""},{""name"":""Knox County Dept. of Air Quality Management""}]"
San Antonio Northwes,San Antonio,US,2017-02-28T08:00:00.000Z,2017-02-28T02:00:00-06:00,pm25,21.6,µg/m³,29.514999,-98.620003,"[{""name"":""US EPA AirNow"",""url"":""http://www.airnow.gov/""},{""name"":""Texas Commission on Environmental Quality""}]"
Selma C301,San Antonio,US,2017-02-28T08:00:00.000Z,2017-02-28T02:00:00-06:00,pm25,23.8,µg/m³,29.5875,-98.3122,"[{""name"":""US EPA AirNow"",""url"":""http://www.airnow.gov/""},{""name"":""Texas Commission on Environmental Quality""}]"
Calaveras Lake C59,San Antonio,US,2017-02-28T08:00:00.000Z,2017-02-28T02:00:00-06:00,pm25,28.7,µg/m³,29.275299,-98.311699,"[{""name"":""US EPA AirNow"",""url"":""http://www.airnow.gov/""},{""name"":""Texas Commission on Environmental Quality""}]"
Phoenix JLG Supersit,Phoenix-Mesa-Scottsdale,US,2017-02-28T08:00:00.000Z,2017-02-28T01:00:00-07:00,pm25,0,µg/m³,33.503601,-112.095001,"[{""name"":""US EPA AirNow"",""url"":""http://www.airnow.gov/""},{""name"":""Arizona Department of Environmental Quality""}]"
Burlington,Burlington-South Burlington,US,2017-02-28T08:00:00.000Z,2017-02-28T03:00:00-05:00,pm25,8.9,µg/m³,44.476101,-73.210297,"[{""name"":""US EPA AirNow"",""url"":""http://www.airnow.gov/""},{""name"":""Vermont Air Quality & Climate Division""}]"
San Pablo - Rumrill,San Francisco-Oakland-Fremont,US,2017-02-28T08:00:00.000Z,2017-02-28T00:00:00-08:00,pm25,5,µg/m³,37.9604,-122.3571,"[{""name"":""US EPA AirNow"",""url"":""http://www.airnow.gov/""},{""name"":""San Francisco Bay Area AQMD""}]"
Niland - English Roa,El Centro,US,2017-02-28T08:00:00.000Z,2017-02-28T00:00:00-08:00,pm25,15,µg/m³,33.2136,-115.5444,"[{""name"":""US EPA AirNow"",""url"":""http://www.airnow.gov/""},{""name"":""Imperial County Air Pollution Control District""}]"
Lancaster-Division,Los Angeles-Long Beach-Santa Ana,US,2017-02-28T08:00:00.000Z,2017-02-28T00:00:00-08:00,pm25,4.1,µg/m³,34.669589,-118.130689,"[{""name"":""US EPA AirNow"",""url"":""http://www.airnow.gov/""},{""name"":""Mojave Desert AQMD""}]"
Thibodaux,Houma-Bayou Cane-Thibodaux,US,2017-02-28T08:00:00.000Z,2017-02-28T02:00:00-06:00,pm25,6.3,µg/m³,29.7639,-90.7653,"[{""name"":""US EPA AirNow"",""url"":""http://www.airnow.gov/""},{""name"":""Louisiana Department of Environmental Quality""}]"
Batavia,Cincinnati-Middletown,US,2017-02-28T08:00:00.000Z,2017-02-28T03:00:00-05:00,pm25,6.4,µg/m³,39.0828,-84.1441,"[{""name"":""US EPA AirNow"",""url"":""http://www.airnow.gov/""},{""name"":""Ohio EPA-DAPC""}]"
WIND CAVE,CUSTER,US,2017-02-28T08:00:00.000Z,2017-02-28T01:00:00-07:00,pm25,3.7,µg/m³,43.557613,-103.483658,"[{""name"":""US EPA AirNow"",""url"":""http://www.airnow.gov/""},{""name"":""South Dakota Department of Environmental and Natural Resources""}]"
St. Maries,BENEWAH,US,2017-02-28T08:00:00.000Z,2017-02-28T00:00:00-08:00,pm25,8,µg/m³,47.3167,-116.570297,"[{""name"":""US EPA AirNow"",""url"":""http://www.airnow.gov/""},{""name"":""Idaho Department of Environmental Quality""}]"
San Antonio Palo Alt,San Antonio,US,2017-02-28T08:00:00.000Z,2017-02-28T02:00:00-06:00,pm25,23.7,µg/m³,29.332803,-98.551396,"[{""name"":""US EPA AirNow"",""url"":""http://www.airnow.gov/""},{""name"":""Texas Commission on Environmental Quality""}]"
San Antonio Old Hwy9,San Antonio,US,2017-02-28T08:00:00.000Z,2017-02-28T02:00:00-06:00,pm25,23.4,µg/m³,29.423933,-98.580505,"[{""name"":""US EPA AirNow"",""url"":""http://www.airnow.gov/""},{""name"":""Texas Commission on Environmental Quality""}]"
Longmont,Boulder,US,2017-02-28T08:00:00.000Z,2017-02-28T01:00:00-07:00,pm25,3.4,µg/m³,40.164585,-105.100861,"[{""name"":""US EPA AirNow"",""url"":""http://www.airnow.gov/""},{""name"":""Colorado Department of Public Health and Environment""}]"
SPRNGDLE,Fayetteville-Springdale-Rogers,US,2017-02-28T08:00:00.000Z,2017-02-28T02:00:00-06:00,pm25,8.8,µg/m³,36.1797,-94.1167,"[{""name"":""US EPA AirNow"",""url"":""http://www.airnow.gov/""},{""name"":""Arkansas Department of Environmental Quality""}]"
Grand Junction - Pow,Grand Junction,US,2017-02-28T08:00:00.000Z,2017-02-28T01:00:00-07:00,pm25,1.4,µg/m³,39.063599,-108.561096,"[{""name"":""US EPA AirNow"",""url"":""http://www.airnow.gov/""},{""name"":""Colorado Department of Public Health and Environment""}]"
Toppenish-Yakama Tri,Yakima,US,2017-02-28T08:00:00.000Z,2017-02-28T00:00:00-08:00,pm25,12,µg/m³,46.380199,-120.332603,"[{""name"":""US EPA AirNow"",""url"":""http://www.airnow.gov/""},{""name"":""Washington Department of Ecology""}]"
Wellpinit-Spokane Tr,STEVENS,US,2017-02-28T08:00:00.000Z,2017-02-28T00:00:00-08:00,pm25,5.4,µg/m³,47.885201,-117.988602,"[{""name"":""US EPA AirNow"",""url"":""http://www.airnow.gov/""},{""name"":""Washington Department of Ecology""}]"
Winthrop-Chewuch Rd,OKANOGAN,US,2017-02-28T08:00:00.000Z,2017-02-28T00:00:00-08:00,pm25,7.7,µg/m³,48.4772,-120.1906,"[{""name"":""US EPA AirNow"",""url"":""http://www.airnow.gov/""},{""name"":""Washington Department of Ecology""}]"
Irmo,Columbia,US,2017-02-28T08:00:00.000Z,2017-02-28T03:00:00-05:00,pm25,21.1,µg/m³,34.051102,-81.154999,"[{""name"":""US EPA AirNow"",""url"":""http://www.airnow.gov/""},{""name"":""South Carolina DHEC""}]"
Yakima-4th Ave,Yakima,US,2017-02-28T08:00:00.000Z,2017-02-28T00:00:00-08:00,pm25,12,µg/m³,46.594952,-120.512283,"[{""name"":""US EPA AirNow"",""url"":""http://www.airnow.gov/""},{""name"":""Washington Department of Ecology""}]"
Galveston Airport C1,Houston-Sugar Land-Baytown,US,2017-02-28T08:00:00.000Z,2017-02-28T02:00:00-06:00,pm25,9,µg/m³,29.2631,-94.8564,"[{""name"":""US EPA AirNow"",""url"":""http://www.airnow.gov/""},{""name"":""Texas Commission on Environmental Quality""}]"
Durham Armory,Durham,US,2017-02-28T08:00:00.000Z,2017-02-28T03:00:00-05:00,pm25,8.9,µg/m³,35.9919,-78.8964,"[{""name"":""US EPA AirNow"",""url"":""http://www.airnow.gov/""},{""name"":""North Carolina DEQ - Divison of Air Quality""}]"
Waco C1037,Waco,US,2017-02-28T08:00:00.000Z,2017-02-28T02:00:00-06:00,pm25,14.3,µg/m³,31.6531,-97.0706,"[{""name"":""US EPA AirNow"",""url"":""http://www.airnow.gov/""},{""name"":""Texas Commission on Environmental Quality""}]"
Kamiah-ID,IDAHO,US,2017-02-28T08:00:00.000Z,2017-02-28T00:00:00-08:00,pm25,3,µg/m³,46.2094,-116.027496,"[{""name"":""US EPA AirNow"",""url"":""http://www.airnow.gov/""},{""name"":""Tribal Environmental Exchange Network""}]"
Lapwai-ID,Lewiston,US,2017-02-28T08:00:00.000Z,2017-02-28T00:00:00-08:00,pm25,-0.5,µg/m³,46.397202,-116.806198,"[{""name"":""US EPA AirNow"",""url"":""http://www.airnow.gov/""},{""name"":""Tribal Environmental Exchange Network""}]"
Groton Fort Griswold,Norwich-New London,US,2017-02-28T08:00:00.000Z,2017-02-28T03:00:00-05:00,pm25,14,µg/m³,41.3536,-72.0789,"[{""name"":""US EPA AirNow"",""url"":""http://www.airnow.gov/""},{""name"":""Connecticut Dept. of Energy and Environmental Protection""}]"
ADEQ-DSR,Little Rock-North Little Rock,US,2017-02-28T08:00:00.000Z,2017-02-28T02:00:00-06:00,pm25,6.2,µg/m³,34.6811,-92.3283,"[{""name"":""US EPA AirNow"",""url"":""http://www.airnow.gov/""},{""name"":""Arkansas Department of Environmental Quality""}]"
Twin Falls PM25,TWIN FALLS,US,2017-02-28T08:00:00.000Z,2017-02-28T01:00:00-07:00,pm25,2,µg/m³,42.565089,-114.494717,"[{""name"":""US EPA AirNow"",""url"":""http://www.airnow.gov/""},{""name"":""Idaho Department of Environmental Quality""}]"
Cincinnati Near Road,Cincinnati-Middletown,US,2017-02-28T08:00:00.000Z,2017-02-28T03:00:00-05:00,pm25,9.7,µg/m³,39.146025,-84.538375,"[{""name"":""US EPA AirNow"",""url"":""http://www.airnow.gov/""},{""name"":""Ohio EPA-DAPC""}]"
Cortina Rancheria,COLUSA,US,2017-02-28T08:00:00.000Z,2017-02-28T00:00:00-08:00,pm25,3.7,µg/m³,39.015,-122.286111,"[{""name"":""US EPA AirNow"",""url"":""http://www.airnow.gov/""},{""name"":""Tribal Environmental Exchange Network""}]"
Sebastopol,Santa Rosa-Petaluma,US,2017-02-28T08:00:00.000Z,2017-02-28T00:00:00-08:00,pm25,8,µg/m³,38.403765,-122.818294,"[{""name"":""US EPA AirNow"",""url"":""http://www.airnow.gov/""},{""name"":""San Francisco Bay Area AQMD""}]"
Towanda,BRADFORD,US,2017-02-28T08:00:00.000Z,2017-02-28T03:00:00-05:00,pm25,10.5,µg/m³,41.705226,-76.512726,"[{""name"":""US EPA AirNow"",""url"":""http://www.airnow.gov/""},{""name"":""Pennsylvania Dept. of Environmental Protection""}]"
Indpls - I-70 E,Indianapolis,US,2017-02-28T08:00:00.000Z,2017-02-28T03:00:00-05:00,pm25,9.2,µg/m³,39.787933,-86.13088,"[{""name"":""US EPA AirNow"",""url"":""http://www.airnow.gov/""},{""name"":""Indiana Dept. of Environmental Management 2""}]"
Paradise Theater,BUTTE,US,2017-02-28T08:00:00.000Z,2017-02-28T00:00:00-08:00,pm25,20,µg/m³,39.753889,-121.624444,"[{""name"":""US EPA AirNow"",""url"":""http://www.airnow.gov/""},{""name"":""California Air Resources Board""}]"
Fort Lee Near Road,New York-Northern New Jersey-Long Island,US,2017-02-28T08:00:00.000Z,2017-02-28T03:00:00-05:00,pm25,8.9,µg/m³,40.85355,-73.9661,"[{""name"":""US EPA AirNow"",""url"":""http://www.airnow.gov/""},{""name"":""New Jersey Dept. of Environmental Protection""}]"
Cottage Grove City S,Eugene-Springfield,US,2017-02-28T08:00:00.000Z,2017-02-28T00:00:00-08:00,pm25,1,µg/m³,43.7995,-123.0535,"[{""name"":""US EPA AirNow"",""url"":""http://www.airnow.gov/""},{""name"":""Lane Regional Air Protection Agency""}]"
Howard County Near R,HOWARD,US,2017-02-28T08:00:00.000Z,2017-02-28T03:00:00-05:00,pm25,8,µg/m³,39.143197,-76.846192,"[{""name"":""US EPA AirNow"",""url"":""http://www.airnow.gov/""},{""name"":""Maryland Department of the Environment""}]"
Madawaska PSB,AROOSTOOK,US,2017-02-28T08:00:00.000Z,2017-02-28T03:00:00-05:00,pm25,11,µg/m³,47.3553,-68.3211,"[{""name"":""US EPA AirNow"",""url"":""http://www.airnow.gov/""},{""name"":""Maine Dept. of Environmental Protection""}]"
Willows-Colusa,GLENN,US,2017-02-28T08:00:00.000Z,2017-02-28T00:00:00-08:00,pm25,11,µg/m³,39.533889,-122.190833,"[{""name"":""US EPA AirNow"",""url"":""http://www.airnow.gov/""},{""name"":""California Air Resources Board""}]"
Otay Mesa - Donovan,San Diego-Carlsbad-San Marcos,US,2017-02-28T08:00:00.000Z,2017-02-28T00:00:00-08:00,pm25,-1.1,µg/m³,32.579361,-116.929486,"[{""name"":""US EPA AirNow"",""url"":""http://www.airnow.gov/""},{""name"":""San Diego APCD""}]"
Dayton - Sinclair,Dayton,US,2017-02-28T08:00:00.000Z,2017-02-28T03:00:00-05:00,pm25,3.7,µg/m³,39.758235,-84.197375,"[{""name"":""US EPA AirNow"",""url"":""http://www.airnow.gov/""},{""name"":""Ohio EPA-DAPC""}]"
Laney College,San Francisco-Oakland-Fremont,US,2017-02-28T08:00:00.000Z,2017-02-28T00:00:00-08:00,pm25,5,µg/m³,37.793624,-122.263376,"[{""name"":""US EPA AirNow"",""url"":""http://www.airnow.gov/""},{""name"":""San Francisco Bay Area AQMD""}]"
San Jose - Knox Ave,San Jose-Sunnyvale-Santa Clara,US,2017-02-28T08:00:00.000Z,2017-02-28T00:00:00-08:00,pm25,6,µg/m³,37.338202,-121.849892,"[{""name"":""US EPA AirNow"",""url"":""http://www.airnow.gov/""},{""name"":""San Francisco Bay Area AQMD""}]"
Red Lake Nation,BELTRAMI,US,2017-02-28T08:00:00.000Z,2017-02-28T02:00:00-06:00,pm25,5,µg/m³,47.878159,-95.029172,"[{""name"":""US EPA AirNow"",""url"":""http://www.airnow.gov/""},{""name"":""Minnesota Pollution Control Agency""}]"
Rumford,OXFORD,US,2017-02-28T08:00:00.000Z,2017-02-28T03:00:00-05:00,pm25,18,µg/m³,44.5514,-70.5463,"[{""name"":""US EPA AirNow"",""url"":""http://www.airnow.gov/""},{""name"":""Maine Dept. of Environmental Protection""}]"
Lakeville - Near Roa,DAKOTA,US,2017-02-28T08:00:00.000Z,2017-02-28T02:00:00-06:00,pm25,11,µg/m³,44.706123,-93.285803,"[{""name"":""US EPA AirNow"",""url"":""http://www.airnow.gov/""},{""name"":""Minnesota Pollution Control Agency""}]"
Vancouver-NE 84th Av,CLARK,US,2017-02-28T08:00:00.000Z,2017-02-28T00:00:00-08:00,pm25,6,µg/m³,45.64336,-122.58737,"[{""name"":""US EPA AirNow"",""url"":""http://www.airnow.gov/""},{""name"":""Washington Department of Ecology""}]"
Broadus,POWDER RIVER,US,2017-02-28T08:00:00.000Z,2017-02-28T01:00:00-07:00,pm25,1.2,µg/m³,45.440295,-105.37028,"[{""name"":""US EPA AirNow"",""url"":""http://www.airnow.gov/""},{""name"":""Montana DEQ""}]"
BONDVILLE,CHAMPAIGN,US,2017-02-28T08:00:00.000Z,2017-02-28T02:00:00-06:00,pm25,8.4,µg/m³,40.052241,-88.372549,"[{""name"":""US EPA AirNow"",""url"":""http://www.airnow.gov/""},{""name"":""Illinois EPA""}]"
Great Falls Overlook,CASCADE,US,2017-02-28T08:00:00.000Z,2017-02-28T01:00:00-07:00,pm25,6.5,µg/m³,47.494318,-111.303317,"[{""name"":""US EPA AirNow"",""url"":""http://www.airnow.gov/""},{""name"":""Montana DEQ""}]"
Lewistown,FERGUS,US,2017-02-28T08:00:00.000Z,2017-02-28T01:00:00-07:00,pm25,5.1,µg/m³,47.048537,-109.455315,"[{""name"":""US EPA AirNow"",""url"":""http://www.airnow.gov/""},{""name"":""Montana DEQ""}]"
Columbia Falls,FLATHEAD,US,2017-02-28T08:00:00.000Z,2017-02-28T01:00:00-07:00,pm25,5.2,µg/m³,48.363694,-114.189272,"[{""name"":""US EPA AirNow"",""url"":""http://www.airnow.gov/""},{""name"":""Montana DEQ""}]"
Bozeman High School,GALLATIN,US,2017-02-28T08:00:00.000Z,2017-02-28T01:00:00-07:00,pm25,0.9,µg/m³,45.683765,-111.056282,"[{""name"":""US EPA AirNow"",""url"":""http://www.airnow.gov/""},{""name"":""Montana DEQ""}]"
NCORE,LEWIS AND CLARK,US,2017-02-28T08:00:00.000Z,2017-02-28T01:00:00-07:00,pm25,2.7,µg/m³,46.8505,-111.987164,"[{""name"":""US EPA AirNow"",""url"":""http://www.airnow.gov/""},{""name"":""Montana DEQ""}]"
French Town - Beckwi,MISSOULA,US,2017-02-28T08:00:00.000Z,2017-02-28T01:00:00-07:00,pm25,6,µg/m³,47.012907,-114.224273,"[{""name"":""US EPA AirNow"",""url"":""http://www.airnow.gov/""},{""name"":""Montana DEQ""}]"
Seeley Elementary Sc,MISSOULA,US,2017-02-28T08:00:00.000Z,2017-02-28T01:00:00-07:00,pm25,35.9,µg/m³,47.17563,-113.476182,"[{""name"":""US EPA AirNow"",""url"":""http://www.airnow.gov/""},{""name"":""Montana DEQ""}]"
Malta,PHILLIPS,US,2017-02-28T08:00:00.000Z,2017-02-28T01:00:00-07:00,pm25,2.2,µg/m³,48.317507,-107.862471,"[{""name"":""US EPA AirNow"",""url"":""http://www.airnow.gov/""},{""name"":""Montana DEQ""}]"
Hamilton PS 46,RAVALLI,US,2017-02-28T08:00:00.000Z,2017-02-28T01:00:00-07:00,pm25,4.8,µg/m³,46.243621,-114.158889,"[{""name"":""US EPA AirNow"",""url"":""http://www.airnow.gov/""},{""name"":""Montana DEQ""}]"
Birney,ROSEBUD,US,2017-02-28T08:00:00.000Z,2017-02-28T01:00:00-07:00,pm25,-2.1,µg/m³,45.366151,-106.48982,"[{""name"":""US EPA AirNow"",""url"":""http://www.airnow.gov/""},{""name"":""Montana DEQ""}]"
Littleton,AROOSTOOK,US,2017-02-28T08:00:00.000Z,2017-02-28T03:00:00-05:00,pm25,6.6,µg/m³,46.228731,-67.882566,"[{""name"":""US EPA AirNow"",""url"":""http://www.airnow.gov/""},{""name"":""Aroostook Band of Micmacs""}]"
LIVONIA NEAR ROAD,WAYNE,US,2017-02-28T08:00:00.000Z,2017-02-28T03:00:00-05:00,pm25,18,µg/m³,42.421494,-83.425168,"[{""name"":""US EPA AirNow"",""url"":""http://www.airnow.gov/""},{""name"":""Michigan Department of Environmental Quality""}]"
Atascadero2,San Luis Obispo-Paso Robles,US,2017-02-28T08:00:00.000Z,2017-02-28T00:00:00-08:00,pm25,7,µg/m³,35.494556,-120.666203,"[{""name"":""US EPA AirNow"",""url"":""http://www.airnow.gov/""},{""name"":""San Luis Obispo County APCD""}]"
KAHULUI,MAUI,US,2017-02-28T08:00:00.000Z,2017-02-27T22:00:00-10:00,pm25,1,µg/m³,20.869444,-156.492417,"[{""name"":""US EPA AirNow"",""url"":""http://www.airnow.gov/""},{""name"":""Hawaii State Dept. of Health""}]"
2912 Coffey,Omaha-Council Bluffs,US,2017-02-28T08:00:00.000Z,2017-02-28T02:00:00-06:00,pm25,20,µg/m³,41.133317,-95.956078,"[{""name"":""US EPA AirNow"",""url"":""http://www.airnow.gov/""},{""name"":""Douglas County Health Department (Omaha)""}]"
Hinds CC,Jackson,US,2017-02-28T08:00:00.000Z,2017-02-28T02:00:00-06:00,pm25,9.4,µg/m³,32.346905,-90.225928,"[{""name"":""US EPA AirNow"",""url"":""http://www.airnow.gov/""},{""name"":""Mississippi DEQ""}]"
SYDNEY,Tampa-St. Petersburg-Clearwater,US,2017-02-28T08:00:00.000Z,2017-02-28T03:00:00-05:00,pm25,10.8,µg/m³,27.5792,-82.1383,"[{""name"":""US EPA AirNow"",""url"":""http://www.airnow.gov/""},{""name"":""Hillsborough County - Tampa""}]"
Pinehurst,SHOSHONE,US,2017-02-28T08:00:00.000Z,2017-02-28T00:00:00-08:00,pm25,7,µg/m³,47.536712,-116.236867,"[{""name"":""US EPA AirNow"",""url"":""http://www.airnow.gov/""},{""name"":""Idaho Department of Environmental Quality""}]"
Idaho City,BOISE,US,2017-02-28T08:00:00.000Z,2017-02-28T01:00:00-07:00,pm25,5.7,µg/m³,43.823017,-115.838557,"[{""name"":""US EPA AirNow"",""url"":""http://www.airnow.gov/""},{""name"":""Idaho Department of Environmental Quality""}]"
Garden Valley,BOISE,US,2017-02-28T08:00:00.000Z,2017-02-28T01:00:00-07:00,pm25,3.7,µg/m³,44.104498,-115.972386,"[{""name"":""US EPA AirNow"",""url"":""http://www.airnow.gov/""},{""name"":""Idaho Department of Environmental Quality""}]"
Grangeville,IDAHO,US,2017-02-28T08:00:00.000Z,2017-02-28T00:00:00-08:00,pm25,4,µg/m³,45.931301,-116.115196,"[{""name"":""US EPA AirNow"",""url"":""http://www.airnow.gov/""},{""name"":""Idaho Department of Environmental Quality""}]"
Bridgeport,Bridgeport-Stamford-Norwalk,US,2017-02-28T08:00:00.000Z,2017-02-28T03:00:00-05:00,pm25,17,µg/m³,41.171398,-73.195297,"[{""name"":""US EPA AirNow"",""url"":""http://www.airnow.gov/""},{""name"":""Connecticut Dept. of Energy and Environmental Protection""}]"
Lacrosse-Hill St,Pullman,US,2017-02-28T08:00:00.000Z,2017-02-28T00:00:00-08:00,pm25,1.6,µg/m³,46.8153,-117.8739,"[{""name"":""US EPA AirNow"",""url"":""http://www.airnow.gov/""},{""name"":""Washington Department of Ecology""}]"
Longview-30th Ave,Longview,US,2017-02-28T08:00:00.000Z,2017-02-28T00:00:00-08:00,pm25,8.1,µg/m³,46.1394,-122.9619,"[{""name"":""US EPA AirNow"",""url"":""http://www.airnow.gov/""},{""name"":""Washington Department of Ecology""}]"
Moscow,Moscow,US,2017-02-28T08:00:00.000Z,2017-02-28T00:00:00-08:00,pm25,3,µg/m³,46.728199,-116.954597,"[{""name"":""US EPA AirNow"",""url"":""http://www.airnow.gov/""},{""name"":""Idaho Department of Environmental Quality""}]"
Chatfield Park - 115,Denver-Aurora,US,2017-02-28T08:00:00.000Z,2017-02-28T01:00:00-07:00,pm25,9.6,µg/m³,39.5339,-105.07,"[{""name"":""US EPA AirNow"",""url"":""http://www.airnow.gov/""},{""name"":""Colorado Department of Public Health and Environment""}]"
LWATTOWR,Thomasville-Lexington,US,2017-02-28T08:00:00.000Z,2017-02-28T03:00:00-05:00,pm25,8.1,µg/m³,35.8142,-80.2633,"[{""name"":""US EPA AirNow"",""url"":""http://www.airnow.gov/""},{""name"":""North Carolina DEQ - Divison of Air Quality""}]"
Piney Run,GARRETT,US,2017-02-28T08:00:00.000Z,2017-02-28T03:00:00-05:00,pm25,6,µg/m³,39.705799,-79.011902,"[{""name"":""US EPA AirNow"",""url"":""http://www.airnow.gov/""},{""name"":""Maryland Department of the Environment""}]"
Heritage Middle Scho,San Antonio,US,2017-02-28T08:00:00.000Z,2017-02-28T02:00:00-06:00,pm25,27.4,µg/m³,29.35291,-98.332838,"[{""name"":""US EPA AirNow"",""url"":""http://www.airnow.gov/""},{""name"":""Texas Commission on Environmental Quality""}]"
Riverside,Chattanooga,US,2017-02-28T08:00:00.000Z,2017-02-28T03:00:00-05:00,pm25,13.2,µg/m³,35.0508,-85.2931,"[{""name"":""US EPA AirNow"",""url"":""http://www.airnow.gov/""},{""name"":""Chattanooga-Hamilton County Air Pollution Control Bureau""}]"
BDED,Asheville,US,2017-02-28T08:00:00.000Z,2017-02-28T03:00:00-05:00,pm25,12,µg/m³,35.6075,-82.5833,"[{""name"":""US EPA AirNow"",""url"":""http://www.airnow.gov/""},{""name"":""North Carolina DEQ - Divison of Air Quality""}]"
Lake Sugema,VAN BUREN,US,2017-02-28T08:00:00.000Z,2017-02-28T02:00:00-06:00,pm25,11,µg/m³,40.693298,-92.006104,"[{""name"":""US EPA AirNow"",""url"":""http://www.airnow.gov/""},{""name"":""Iowa DNR""}]"
Brainerd,Brainerd,US,2017-02-28T08:00:00.000Z,2017-02-28T02:00:00-06:00,pm25,13,µg/m³,46.3944,-94.1433,"[{""name"":""US EPA AirNow"",""url"":""http://www.airnow.gov/""},{""name"":""Minnesota Pollution Control Agency""}]"
Lebanon,Lebanon,US,2017-02-28T08:00:00.000Z,2017-02-28T03:00:00-05:00,pm25,11.6,µg/m³,43.629605,-72.309499,"[{""name"":""US EPA AirNow"",""url"":""http://www.airnow.gov/""},{""name"":""New Hampshire Dept. of Environmental Services""}]"
Twisp-Glover St,CHELAN,US,2017-02-28T08:00:00.000Z,2017-02-28T00:00:00-08:00,pm25,10.3,µg/m³,48.3645,-120.1211,"[{""name"":""US EPA AirNow"",""url"":""http://www.airnow.gov/""},{""name"":""Washington Department of Ecology""}]"
Ellensburg-Ruby St,Ellensburg,US,2017-02-28T08:00:00.000Z,2017-02-28T00:00:00-08:00,pm25,18,µg/m³,46.9936,-120.545,"[{""name"":""US EPA AirNow"",""url"":""http://www.airnow.gov/""},{""name"":""Washington Department of Ecology""}]"
El Dorado,El Dorado,US,2017-02-28T08:00:00.000Z,2017-02-28T02:00:00-06:00,pm25,5.8,µg/m³,33.215,-92.6689,"[{""name"":""US EPA AirNow"",""url"":""http://www.airnow.gov/""},{""name"":""Arkansas Department of Environmental Quality""}]"
Amarillo Texas A&M C,Amarillo,US,2017-02-28T08:00:00.000Z,2017-02-28T02:00:00-06:00,pm25,3.9,µg/m³,35.2006,-101.9083,"[{""name"":""US EPA AirNow"",""url"":""http://www.airnow.gov/""},{""name"":""Texas Commission on Environmental Quality""}]"
Detroit Lakes,BECKER,US,2017-02-28T08:00:00.000Z,2017-02-28T02:00:00-06:00,pm25,6,µg/m³,46.8511,-95.8467,"[{""name"":""US EPA AirNow"",""url"":""http://www.airnow.gov/""},{""name"":""Minnesota Pollution Control Agency""}]"
MICMAC,AROOSTOOK,US,2017-02-28T08:00:00.000Z,2017-02-28T03:00:00-05:00,pm25,7,µg/m³,46.6964,-68.033096,"[{""name"":""US EPA AirNow"",""url"":""http://www.airnow.gov/""},{""name"":""Aroostook Band of Micmacs""}]"
Credit Union,Rapid City,US,2017-02-28T08:00:00.000Z,2017-02-28T01:00:00-07:00,pm25,9.2,µg/m³,44.087397,-103.273777,"[{""name"":""US EPA AirNow"",""url"":""http://www.airnow.gov/""},{""name"":""South Dakota Department of Environmental and Natural Resources""}]"
Anacortes-202 Ave (S,SKAGIT,US,2017-02-28T08:00:00.000Z,2017-02-28T00:00:00-08:00,pm25,10,µg/m³,48.52059,-122.61428,"[{""name"":""US EPA AirNow"",""url"":""http://www.airnow.gov/""},{""name"":""Washington Department of Ecology""}]"
Bremerton-Spruce Ave,KITSAP,US,2017-02-28T08:00:00.000Z,2017-02-28T00:00:00-08:00,pm25,2.2,µg/m³,47.592675,-122.627397,"[{""name"":""US EPA AirNow"",""url"":""http://www.airnow.gov/""},{""name"":""Washington Department of Ecology""}]"
Chico -  East,BUTTE,US,2017-02-28T08:00:00.000Z,2017-02-28T00:00:00-08:00,pm25,12,µg/m³,39.76161,-121.84048,"[{""name"":""US EPA AirNow"",""url"":""http://www.airnow.gov/""},{""name"":""California Air Resources Board""}]"
Fresno - Garland,FRESNO,US,2017-02-28T08:00:00.000Z,2017-02-28T00:00:00-08:00,pm25,12.3,µg/m³,36.785378,-119.773206,"[{""name"":""US EPA AirNow"",""url"":""http://www.airnow.gov/""},{""name"":""California Air Resources Board""}]"
Roosvelt,DUCHESNE,US,2017-02-28T08:00:00.000Z,2017-02-28T01:00:00-07:00,pm25,0.5,µg/m³,40.2943,-110.009,"[{""name"":""US EPA AirNow"",""url"":""http://www.airnow.gov/""},{""name"":""Utah Department of Environmental Quality""}]"
Watertown,CODINGTON,US,2017-02-28T08:00:00.000Z,2017-02-28T02:00:00-06:00,pm25,6,µg/m³,44.89965,-97.128802,"[{""name"":""US EPA AirNow"",""url"":""http://www.airnow.gov/""},{""name"":""South Dakota Department of Environmental and Natural Resources""}]"
Research Farm,BROOKINGS,US,2017-02-28T08:00:00.000Z,2017-02-28T02:00:00-06:00,pm25,11.7,µg/m³,44.348604,-96.807299,"[{""name"":""US EPA AirNow"",""url"":""http://www.airnow.gov/""},{""name"":""South Dakota Department of Environmental and Natural Resources""}]"
Douglas Red Cross,Sierra Vista-Douglas,US,2017-02-28T08:00:00.000Z,2017-02-28T01:00:00-07:00,pm25,4,µg/m³,31.3492,-109.539683,"[{""name"":""US EPA AirNow"",""url"":""http://www.airnow.gov/""},{""name"":""Arizona Department of Environmental Quality""}]"
Boulder Creek,Santa Cruz-Watsonville,US,2017-02-28T08:00:00.000Z,2017-02-28T00:00:00-08:00,pm25,4,µg/m³,37.125861,-122.122127,"[{""name"":""US EPA AirNow"",""url"":""http://www.airnow.gov/""},{""name"":""Monterey Bay Unified APCD""}]"
Felton Cal-Fire,Santa Cruz-Watsonville,US,2017-02-28T08:00:00.000Z,2017-02-28T00:00:00-08:00,pm25,23,µg/m³,37.0481,-122.074603,"[{""name"":""US EPA AirNow"",""url"":""http://www.airnow.gov/""},{""name"":""Monterey Bay Unified APCD""}]"
Wenatchee-Fifth St,CHELAN,US,2017-02-28T08:00:00.000Z,2017-02-28T00:00:00-08:00,pm25,7,µg/m³,47.43061,-120.34195,"[{""name"":""US EPA AirNow"",""url"":""http://www.airnow.gov/""},{""name"":""Washington Department of Ecology""}]"
Franklin,FRANKLIN,US,2017-02-28T08:00:00.000Z,2017-02-28T01:00:00-07:00,pm25,-4,µg/m³,42.013333,-111.80916,"[{""name"":""US EPA AirNow"",""url"":""http://www.airnow.gov/""},{""name"":""Idaho Department of Environmental Quality""}]"
Virginia,ST. LOUIS,US,2017-02-28T08:00:00.000Z,2017-02-28T02:00:00-06:00,pm25,6,µg/m³,47.5212,-92.5393,"[{""name"":""US EPA AirNow"",""url"":""http://www.airnow.gov/""},{""name"":""Minnesota Pollution Control Agency""}]"
La Casa NCORE - 4545,Denver-Aurora,US,2017-02-28T08:00:00.000Z,2017-02-28T01:00:00-07:00,pm25,1.7,µg/m³,39.7794,-105.00523,"[{""name"":""US EPA AirNow"",""url"":""http://www.airnow.gov/""},{""name"":""Colorado Department of Public Health and Environment""}]"
Forest Park,St. Louis,US,2017-02-28T08:00:00.000Z,2017-02-28T02:00:00-06:00,pm25,12.6,µg/m³,38.631057,-90.281144,"[{""name"":""US EPA AirNow"",""url"":""http://www.airnow.gov/""},{""name"":""Missouri Department of Natural Resources""}]"
Springfield City Hal,Eugene-Springfield,US,2017-02-28T08:00:00.000Z,2017-02-28T00:00:00-08:00,pm25,0.2,µg/m³,44.046683,-123.017736,"[{""name"":""US EPA AirNow"",""url"":""http://www.airnow.gov/""},{""name"":""Lane Regional Air Protection Agency""}]"
Eugene - Highway 99,Eugene-Springfield,US,2017-02-28T08:00:00.000Z,2017-02-28T00:00:00-08:00,pm25,0.2,µg/m³,44.067223,-123.14135,"[{""name"":""US EPA AirNow"",""url"":""http://www.airnow.gov/""},{""name"":""Lane Regional Air Protection Agency""}]"
"Muscatine, High Scho",MUSCATINE,US,2017-02-28T08:00:00.000Z,2017-02-28T02:00:00-06:00,pm25,16,µg/m³,41.4014,-91.0684,"[{""name"":""US EPA AirNow"",""url"":""http://www.airnow.gov/""},{""name"":""Iowa DNR""}]"
Hartford-Huntley,Hartford-West Hartford-East Hartford,US,2017-02-28T08:00:00.000Z,2017-02-28T03:00:00-05:00,pm25,17,µg/m³,41.771444,-72.679923,"[{""name"":""US EPA AirNow"",""url"":""http://www.airnow.gov/""},{""name"":""Connecticut Dept. of Energy and Environmental Protection""}]"
NCore - White Mounta,Bishop,US,2017-02-28T08:00:00.000Z,2017-02-28T00:00:00-08:00,pm25,3.3,µg/m³,37.360701,-118.330835,"[{""name"":""US EPA AirNow"",""url"":""http://www.airnow.gov/""},{""name"":""Great Basin Unified Air Pollution Control District""}]"
Keeler,Bishop,US,2017-02-28T08:00:00.000Z,2017-02-28T00:00:00-08:00,pm25,0.9,µg/m³,36.4878,-117.871,"[{""name"":""US EPA AirNow"",""url"":""http://www.airnow.gov/""},{""name"":""Great Basin Unified Air Pollution Control District""}]"
"Paia, Maui",MAUI,US,2017-02-28T08:00:00.000Z,2017-02-27T22:00:00-10:00,pm25,2,µg/m³,20.902031,-156.370344,"[{""name"":""US EPA AirNow"",""url"":""http://www.airnow.gov/""},{""name"":""Hawaii State Dept. of Health""}]"
Blue Ridge I-70,Kansas City,US,2017-02-28T08:00:00.000Z,2017-02-28T02:00:00-06:00,pm25,15.4,µg/m³,39.047911,-94.450513,"[{""name"":""US EPA AirNow"",""url"":""http://www.airnow.gov/""},{""name"":""Missouri Department of Natural Resources""}]"
Minneapolis-Near Roa,Minneapolis-St. Paul-Bloomington,US,2017-02-28T08:00:00.000Z,2017-02-28T02:00:00-06:00,pm25,12,µg/m³,44.9653,-93.2551,"[{""name"":""US EPA AirNow"",""url"":""http://www.airnow.gov/""},{""name"":""Minnesota Pollution Control Agency""}]"
Chelan-Woodin Ave,CHELAN,US,2017-02-28T08:00:00.000Z,2017-02-28T00:00:00-08:00,pm25,4.8,µg/m³,47.83861,-120.02306,"[{""name"":""US EPA AirNow"",""url"":""http://www.airnow.gov/""},{""name"":""Washington Department of Ecology""}]"
Cicero2,COOK,US,2017-02-28T08:00:00.000Z,2017-02-28T02:00:00-06:00,pm25,10.9,µg/m³,41.864329,-87.748826,"[{""name"":""US EPA AirNow"",""url"":""http://www.airnow.gov/""},{""name"":""Illinois EPA""}]"
Candor FRO,MONTGOMERY,US,2017-02-28T08:00:00.000Z,2017-02-28T03:00:00-05:00,pm25,11.2,µg/m³,35.2632,-79.8635,"[{""name"":""US EPA AirNow"",""url"":""http://www.airnow.gov/""},{""name"":""North Carolina DEQ - Divison of Air Quality""}]"
NEW,PHILADELPHIA,US,2017-02-28T08:00:00.000Z,2017-02-28T03:00:00-05:00,pm25,10.3,µg/m³,39.991389,-75.080833,"[{""name"":""US EPA AirNow"",""url"":""http://www.airnow.gov/""},{""name"":""Philadelphia Air Management Services""}]"
Garden,Anchorage,US,2017-02-28T08:00:00.000Z,2017-02-27T23:00:00-09:00,pm25,2,µg/m³,61.205861,-149.8246,"[{""name"":""US EPA AirNow"",""url"":""http://www.airnow.gov/""},{""name"":""State of Alaska DEC""}]"
Parkgate (Eagle Rive,Anchorage,US,2017-02-28T08:00:00.000Z,2017-02-27T23:00:00-09:00,pm25,1,µg/m³,61.3267,-149.569707,"[{""name"":""US EPA AirNow"",""url"":""http://www.airnow.gov/""},{""name"":""State of Alaska DEC""}]"
NCore,Fairbanks,US,2017-02-28T08:00:00.000Z,2017-02-27T23:00:00-09:00,pm25,6,µg/m³,64.8458,-147.72727,"[{""name"":""US EPA AirNow"",""url"":""http://www.airnow.gov/""},{""name"":""State of Alaska DEC""}]"
Butte (Harrison Cour,MATANUSKA-SUSITNA,US,2017-02-28T08:00:00.000Z,2017-02-27T23:00:00-09:00,pm25,-1,µg/m³,61.534163,-149.031655,"[{""name"":""US EPA AirNow"",""url"":""http://www.airnow.gov/""},{""name"":""State of Alaska DEC""}]"
Blackstone,LEE,US,2017-02-28T08:00:00.000Z,2017-02-28T03:00:00-05:00,pm25,10.3,µg/m³,35.4325,-79.2887,"[{""name"":""US EPA AirNow"",""url"":""http://www.airnow.gov/""},{""name"":""North Carolina DEQ - Divison of Air Quality""}]"
North Pole Fire Stat,Fairbanks,US,2017-02-28T08:00:00.000Z,2017-02-27T23:00:00-09:00,pm25,0,µg/m³,64.762973,-147.310297,"[{""name"":""US EPA AirNow"",""url"":""http://www.airnow.gov/""},{""name"":""State of Alaska DEC""}]"
Arden Arcade - Del P,Sacramento--Arden-Arcade--Roseville,US,2017-02-28T08:00:00.000Z,2017-02-28T00:00:00-08:00,pm25,16,µg/m³,38.613804,-121.368007,"[{""name"":""US EPA AirNow"",""url"":""http://www.airnow.gov/""},{""name"":""Sacramento Metro. AQMD""}]"
Downtown Sacramento,Sacramento--Arden-Arcade--Roseville,US,2017-02-28T08:00:00.000Z,2017-02-28T00:00:00-08:00,pm25,18,µg/m³,38.56844,-121.49311,"[{""name"":""US EPA AirNow"",""url"":""http://www.airnow.gov/""},{""name"":""California Air Resources Board""}]"
Elk Grove,Sacramento--Arden-Arcade--Roseville,US,2017-02-28T08:00:00.000Z,2017-02-28T00:00:00-08:00,pm25,2,µg/m³,38.302591,-121.420838,"[{""name"":""US EPA AirNow"",""url"":""http://www.airnow.gov/""},{""name"":""Sacramento Metro. AQMD""}]"
Folsom,Sacramento--Arden-Arcade--Roseville,US,2017-02-28T08:00:00.000Z,2017-02-28T00:00:00-08:00,pm25,6,µg/m³,38.683304,-121.164457,"[{""name"":""US EPA AirNow"",""url"":""http://www.airnow.gov/""},{""name"":""Sacramento Metro. AQMD""}]"
Sloughhouse,Sacramento--Arden-Arcade--Roseville,US,2017-02-28T08:00:00.000Z,2017-02-28T00:00:00-08:00,pm25,2,µg/m³,38.494475,-121.211131,"[{""name"":""US EPA AirNow"",""url"":""http://www.airnow.gov/""},{""name"":""Sacramento Metro. AQMD""}]"
Alpine,San Diego-Carlsbad-San Marcos,US,2017-02-28T08:00:00.000Z,2017-02-28T00:00:00-08:00,pm25,2.1,µg/m³,32.842297,-116.768326,"[{""name"":""US EPA AirNow"",""url"":""http://www.airnow.gov/""},{""name"":""San Diego APCD""}]"
Camp Pendleton,San Diego-Carlsbad-San Marcos,US,2017-02-28T08:00:00.000Z,2017-02-28T00:00:00-08:00,pm25,1.6,µg/m³,33.217026,-117.396156,"[{""name"":""US EPA AirNow"",""url"":""http://www.airnow.gov/""},{""name"":""San Diego APCD""}]"
Stockton - Hazelton,Stockton,US,2017-02-28T08:00:00.000Z,2017-02-28T00:00:00-08:00,pm25,7,µg/m³,37.9508,-121.2675,"[{""name"":""US EPA AirNow"",""url"":""http://www.airnow.gov/""},{""name"":""California Air Resources Board""}]"
Mesa 2 /Nipomo,San Luis Obispo-Paso Robles,US,2017-02-28T08:00:00.000Z,2017-02-28T00:00:00-08:00,pm25,4,µg/m³,35.02079,-120.56389,"[{""name"":""US EPA AirNow"",""url"":""http://www.airnow.gov/""},{""name"":""San Luis Obispo County APCD""}]"
Tulsa,Tulsa,US,2017-02-28T08:00:00.000Z,2017-02-28T02:00:00-06:00,pm25,10,µg/m³,36.206699,-95.976402,"[{""name"":""US EPA AirNow"",""url"":""http://www.airnow.gov/""},{""name"":""Oklahoma Department of Environmental Quality""}]"
Reno3,Reno-Sparks,US,2017-02-28T08:00:00.000Z,2017-02-28T00:00:00-08:00,pm25,0,µg/m³,39.525082,-119.807716,"[{""name"":""US EPA AirNow"",""url"":""http://www.airnow.gov/""},{""name"":""Washoe County Health District Air Quality Management Division""}]"
Redwood City,San Francisco-Oakland-Fremont,US,2017-02-28T08:00:00.000Z,2017-02-28T00:00:00-08:00,pm25,1,µg/m³,37.4828,-122.2022,"[{""name"":""US EPA AirNow"",""url"":""http://www.airnow.gov/""},{""name"":""San Francisco Bay Area AQMD""}]"
Lompoc H Street,Santa Barbara-Santa Maria,US,2017-02-28T08:00:00.000Z,2017-02-28T00:00:00-08:00,pm25,5,µg/m³,34.637798,-120.456703,"[{""name"":""US EPA AirNow"",""url"":""http://www.airnow.gov/""},{""name"":""Santa Barbara County Air Pollution Control District""}]"
Goleta,Santa Barbara-Santa Maria,US,2017-02-28T08:00:00.000Z,2017-02-28T00:00:00-08:00,pm25,10,µg/m³,34.445301,-119.827797,"[{""name"":""US EPA AirNow"",""url"":""http://www.airnow.gov/""},{""name"":""Santa Barbara County Air Pollution Control District""}]"
Gilory - 9th Street,San Jose-Sunnyvale-Santa Clara,US,2017-02-28T08:00:00.000Z,2017-02-28T00:00:00-08:00,pm25,-2,µg/m³,36.999571,-121.574684,"[{""name"":""US EPA AirNow"",""url"":""http://www.airnow.gov/""},{""name"":""San Francisco Bay Area AQMD""}]"
Anderson,Redding,US,2017-02-28T08:00:00.000Z,2017-02-28T00:00:00-08:00,pm25,23.9,µg/m³,40.4531,-122.2978,"[{""name"":""US EPA AirNow"",""url"":""http://www.airnow.gov/""},{""name"":""Shasta County Air Quality Management District""}]"
Modesto - 14th Stree,Modesto,US,2017-02-28T08:00:00.000Z,2017-02-28T00:00:00-08:00,pm25,5,µg/m³,37.6583,-120.9936,"[{""name"":""US EPA AirNow"",""url"":""http://www.airnow.gov/""},{""name"":""California Air Resources Board""}]"
Yuba City,Yuba City,US,2017-02-28T08:00:00.000Z,2017-02-28T00:00:00-08:00,pm25,14,µg/m³,39.1389,-121.6175,"[{""name"":""US EPA AirNow"",""url"":""http://www.airnow.gov/""},{""name"":""California Air Resources Board""}]"
Visalia - N. Church,Visalia-Porterville,US,2017-02-28T08:00:00.000Z,2017-02-28T00:00:00-08:00,pm25,6,µg/m³,36.3322,-119.2903,"[{""name"":""US EPA AirNow"",""url"":""http://www.airnow.gov/""},{""name"":""California Air Resources Board""}]"
Thousand Oaks - Moor,Oxnard-Thousand Oaks-Ventura,US,2017-02-28T08:00:00.000Z,2017-02-28T00:00:00-08:00,pm25,5,µg/m³,34.21,-118.8694,"[{""name"":""US EPA AirNow"",""url"":""http://www.airnow.gov/""},{""name"":""Ventura County  APCD""}]"
Denton Airport South,Dallas-Fort Worth-Arlington,US,2017-02-28T08:00:00.000Z,2017-02-28T02:00:00-06:00,pm25,20.8,µg/m³,33.1944,-97.1933,"[{""name"":""US EPA AirNow"",""url"":""http://www.airnow.gov/""},{""name"":""Texas Commission on Environmental Quality""}]"
Midlothian OFW C52,Dallas-Fort Worth-Arlington,US,2017-02-28T08:00:00.000Z,2017-02-28T02:00:00-06:00,pm25,20.2,µg/m³,32.482081,-97.026922,"[{""name"":""US EPA AirNow"",""url"":""http://www.airnow.gov/""},{""name"":""Texas Commission on Environmental Quality""}]"
El Paso UTEP C12,El Paso,US,2017-02-28T08:00:00.000Z,2017-02-28T01:00:00-07:00,pm25,4.8,µg/m³,31.768056,-106.501111,"[{""name"":""US EPA AirNow"",""url"":""http://www.airnow.gov/""},{""name"":""Texas Commission on Environmental Quality""}]"
Socorro Hueco C49,El Paso,US,2017-02-28T08:00:00.000Z,2017-02-28T01:00:00-07:00,pm25,0.9,µg/m³,31.66752,-106.28774,"[{""name"":""US EPA AirNow"",""url"":""http://www.airnow.gov/""},{""name"":""Texas Commission on Environmental Quality""}]"
Fayette C601,FAYETTE,US,2017-02-28T08:00:00.000Z,2017-02-28T02:00:00-06:00,pm25,19.2,µg/m³,29.962474,-96.745875,"[{""name"":""US EPA AirNow"",""url"":""http://www.airnow.gov/""},{""name"":""Texas Commission on Environmental Quality""}]"
Houston Aldine C8,Houston-Sugar Land-Baytown,US,2017-02-28T08:00:00.000Z,2017-02-28T02:00:00-06:00,pm25,14.7,µg/m³,29.9011,-95.3261,"[{""name"":""US EPA AirNow"",""url"":""http://www.airnow.gov/""},{""name"":""Texas Commission on Environmental Quality""}]"
Houston East C1,Houston-Sugar Land-Baytown,US,2017-02-28T08:00:00.000Z,2017-02-28T02:00:00-06:00,pm25,14.4,µg/m³,29.7681,-95.2206,"[{""name"":""US EPA AirNow"",""url"":""http://www.airnow.gov/""},{""name"":""Texas Commission on Environmental Quality""}]"
Houston Deer Park C3,Houston-Sugar Land-Baytown,US,2017-02-28T08:00:00.000Z,2017-02-28T02:00:00-06:00,pm25,11.2,µg/m³,29.670025,-95.128508,"[{""name"":""US EPA AirNow"",""url"":""http://www.airnow.gov/""},{""name"":""Texas Commission on Environmental Quality""}]"
Mission C43,McAllen-Edinburg-Mission,US,2017-02-28T08:00:00.000Z,2017-02-28T02:00:00-06:00,pm25,43.5,µg/m³,26.226226,-98.29107,"[{""name"":""US EPA AirNow"",""url"":""http://www.airnow.gov/""},{""name"":""Texas Commission on Environmental Quality""}]"
SETRPC Mauriceville,Beaumont-Port Arthur,US,2017-02-28T08:00:00.000Z,2017-02-28T02:00:00-06:00,pm25,9.8,µg/m³,30.18,-93.8731,"[{""name"":""US EPA AirNow"",""url"":""http://www.airnow.gov/""},{""name"":""Texas Commission on Environmental Quality""}]"
Austin Northwest C3,Austin-Round Rock,US,2017-02-28T08:00:00.000Z,2017-02-28T02:00:00-06:00,pm25,19,µg/m³,30.3542,-97.760002,"[{""name"":""US EPA AirNow"",""url"":""http://www.airnow.gov/""},{""name"":""Texas Commission on Environmental Quality""}]"
Audubon C38,Austin-Round Rock,US,2017-02-28T08:00:00.000Z,2017-02-28T02:00:00-06:00,pm25,19.6,µg/m³,30.483168,-97.8723,"[{""name"":""US EPA AirNow"",""url"":""http://www.airnow.gov/""},{""name"":""Texas Commission on Environmental Quality""}]"
Hawthorne,Salt Lake City,US,2017-02-28T08:00:00.000Z,2017-02-28T01:00:00-07:00,pm25,-0.1,µg/m³,40.733501,-111.871696,"[{""name"":""US EPA AirNow"",""url"":""http://www.airnow.gov/""},{""name"":""Utah Department of Environmental Quality""}]"
Lindon - Provo,Provo-Orem,US,2017-02-28T08:00:00.000Z,2017-02-28T01:00:00-07:00,pm25,13.9,µg/m³,40.3414,-111.7136,"[{""name"":""US EPA AirNow"",""url"":""http://www.airnow.gov/""},{""name"":""Utah Department of Environmental Quality""}]"
Bennington,Bennington,US,2017-02-28T08:00:00.000Z,2017-02-28T03:00:00-05:00,pm25,4.4,µg/m³,42.887501,-73.249702,"[{""name"":""US EPA AirNow"",""url"":""http://www.airnow.gov/""},{""name"":""Vermont Air Quality & Climate Division""}]"
HU-Beltsville,Washington-Arlington-Alexandria,US,2017-02-28T08:00:00.000Z,2017-02-28T03:00:00-05:00,pm25,5,µg/m³,39.055302,-76.878304,"[{""name"":""US EPA AirNow"",""url"":""http://www.airnow.gov/""},{""name"":""Maryland Department of the Environment""}]"
Lancaster,Coeur d'Alene,US,2017-02-28T08:00:00.000Z,2017-02-28T00:00:00-08:00,pm25,4,µg/m³,47.7889,-116.8044,"[{""name"":""US EPA AirNow"",""url"":""http://www.airnow.gov/""},{""name"":""Idaho Department of Environmental Quality""}]"
Marshall,Marshall,US,2017-02-28T08:00:00.000Z,2017-02-28T02:00:00-06:00,pm25,16,µg/m³,44.4572,-95.835,"[{""name"":""US EPA AirNow"",""url"":""http://www.airnow.gov/""},{""name"":""Minnesota Pollution Control Agency""}]"
Libby Courthouse,LINCOLN,US,2017-02-28T08:00:00.000Z,2017-02-28T01:00:00-07:00,pm25,14,µg/m³,48.3841,-115.548,"[{""name"":""US EPA AirNow"",""url"":""http://www.airnow.gov/""},{""name"":""Montana DEQ""}]"
Clemmons Middle,Winston-Salem,US,2017-02-28T08:00:00.000Z,2017-02-28T03:00:00-05:00,pm25,10.5,µg/m³,36.0261,-80.3419,"[{""name"":""US EPA AirNow"",""url"":""http://www.airnow.gov/""},{""name"":""Forsyth County Office of Environmental Assistance and Protection""}]"
Eagle Pass C319,Eagle Pass,US,2017-02-28T08:00:00.000Z,2017-02-28T02:00:00-06:00,pm25,20.2,µg/m³,28.704607,-100.451155,"[{""name"":""US EPA AirNow"",""url"":""http://www.airnow.gov/""},{""name"":""Texas Commission on Environmental Quality""}]"
Burdens Creek,Durham,US,2017-02-28T08:00:00.000Z,2017-02-28T03:00:00-05:00,pm25,4,µg/m³,35.889402,-78.8747,"[{""name"":""US EPA AirNow"",""url"":""http://www.airnow.gov/""},{""name"":""EPA Office of Air Quality Planning and Standards""}]"
Sunrise Acres,Las Vegas-Paradise,US,2017-02-28T08:00:00.000Z,2017-02-28T00:00:00-08:00,pm25,4.8,µg/m³,36.163958,-115.113917,"[{""name"":""US EPA AirNow"",""url"":""http://www.airnow.gov/""},{""name"":""Clark County Department of Air Quality""}]"
Springfield PM,Springfield,US,2017-02-28T08:00:00.000Z,2017-02-28T03:00:00-05:00,pm25,7.4,µg/m³,39.92882,-83.80949,"[{""name"":""US EPA AirNow"",""url"":""http://www.airnow.gov/""},{""name"":""Ohio EPA-DAPC""}]"
Yellow Springs,Dayton,US,2017-02-28T08:00:00.000Z,2017-02-28T03:00:00-05:00,pm25,7.4,µg/m³,39.80834,-83.88711,"[{""name"":""US EPA AirNow"",""url"":""http://www.airnow.gov/""},{""name"":""Ohio EPA-DAPC""}]"
BAY CITY,Bay City,US,2017-02-28T08:00:00.000Z,2017-02-28T03:00:00-05:00,pm25,12.7,µg/m³,43.5714,-83.8908,"[{""name"":""US EPA AirNow"",""url"":""http://www.airnow.gov/""},{""name"":""Michigan Department of Environmental Quality""}]"
Lafayette,Lafayette,US,2017-02-28T08:00:00.000Z,2017-02-28T02:00:00-06:00,pm25,0,µg/m³,30.2258,-92.042801,"[{""name"":""US EPA AirNow"",""url"":""http://www.airnow.gov/""},{""name"":""Louisiana Department of Environmental Quality""}]"
PEORIA_J,Peoria,US,2017-02-28T08:00:00.000Z,2017-02-28T02:00:00-06:00,pm25,8.1,µg/m³,40.6978,-89.5889,"[{""name"":""US EPA AirNow"",""url"":""http://www.airnow.gov/""},{""name"":""Illinois EPA""}]"
West Union,ADAMS,US,2017-02-28T08:00:00.000Z,2017-02-28T03:00:00-05:00,pm25,4.4,µg/m³,38.79471,-83.533988,"[{""name"":""US EPA AirNow"",""url"":""http://www.airnow.gov/""},{""name"":""Ohio EPA-DAPC""}]"
Pocono,East Stroudsburg,US,2017-02-28T08:00:00.000Z,2017-02-28T03:00:00-05:00,pm25,10.1,µg/m³,41.083099,-75.3283,"[{""name"":""US EPA AirNow"",""url"":""http://www.airnow.gov/""},{""name"":""Pennsylvania Dept. of Environmental Protection""}]"
DETROIT - W LAFAYETT,Detroit-Warren-Livonia,US,2017-02-28T08:00:00.000Z,2017-02-28T03:00:00-05:00,pm25,9.1,µg/m³,42.3231,-83.0689,"[{""name"":""US EPA AirNow"",""url"":""http://www.airnow.gov/""},{""name"":""Michigan Department of Environmental Quality""}]"
Jersey City FH,New York-Northern New Jersey-Long Island,US,2017-02-28T08:00:00.000Z,2017-02-28T03:00:00-05:00,pm25,10,µg/m³,40.725452,-74.052292,"[{""name"":""US EPA AirNow"",""url"":""http://www.airnow.gov/""},{""name"":""New Jersey Dept. of Environmental Protection""}]"
Corpus Christi Dona,Corpus Christi,US,2017-02-28T08:00:00.000Z,2017-02-28T02:00:00-06:00,pm25,19,µg/m³,27.811814,-97.4657,"[{""name"":""US EPA AirNow"",""url"":""http://www.airnow.gov/""},{""name"":""Texas Commission on Environmental Quality""}]"
Cheeka Peak,Port Angeles,US,2017-02-28T08:00:00.000Z,2017-02-28T00:00:00-08:00,pm25,1.4,µg/m³,48.2867,-124.6203,"[{""name"":""US EPA AirNow"",""url"":""http://www.airnow.gov/""},{""name"":""Washington Department of Ecology""}]"
Darrington-Fir St,Seattle-Tacoma-Bellevue,US,2017-02-28T08:00:00.000Z,2017-02-28T00:00:00-08:00,pm25,7.5,µg/m³,48.246799,-121.603104,"[{""name"":""US EPA AirNow"",""url"":""http://www.airnow.gov/""},{""name"":""Washington Department of Ecology""}]"
LLCHD BAM,Lincoln,US,2017-02-28T08:00:00.000Z,2017-02-28T02:00:00-06:00,pm25,17,µg/m³,40.8125,-96.683098,"[{""name"":""US EPA AirNow"",""url"":""http://www.airnow.gov/""},{""name"":""Nebraska Department of Environmental Quality""}]"
Danbury,Bridgeport-Stamford-Norwalk,US,2017-02-28T08:00:00.000Z,2017-02-28T03:00:00-05:00,pm25,21,µg/m³,41.4014,-73.4447,"[{""name"":""US EPA AirNow"",""url"":""http://www.airnow.gov/""},{""name"":""Connecticut Dept. of Energy and Environmental Protection""}]"
KILLENS,Dover,US,2017-02-28T08:00:00.000Z,2017-02-28T03:00:00-05:00,pm25,5.7,µg/m³,38.9847,-75.5556,"[{""name"":""US EPA AirNow"",""url"":""http://www.airnow.gov/""},{""name"":""Delaware Dept. of Natural Resources and Environment""}]"
SEAFORD,Seaford,US,2017-02-28T08:00:00.000Z,2017-02-28T03:00:00-05:00,pm25,7.4,µg/m³,38.6444,-75.6131,"[{""name"":""US EPA AirNow"",""url"":""http://www.airnow.gov/""},{""name"":""Delaware Dept. of Natural Resources and Environment""}]"
Yacolt-Yacolt Rd,CLARK,US,2017-02-28T08:00:00.000Z,2017-02-28T00:00:00-08:00,pm25,1.1,µg/m³,45.863899,-122.410889,"[{""name"":""US EPA AirNow"",""url"":""http://www.airnow.gov/""},{""name"":""Washington Department of Ecology""}]"
Airway Heights-West,SPOKANE,US,2017-02-28T08:00:00.000Z,2017-02-28T00:00:00-08:00,pm25,2.3,µg/m³,47.645351,-117.589027,"[{""name"":""US EPA AirNow"",""url"":""http://www.airnow.gov/""},{""name"":""Washington Department of Ecology""}]"
Anacortes-Bartholome,SKAGIT,US,2017-02-28T08:00:00.000Z,2017-02-28T00:00:00-08:00,pm25,3.9,µg/m³,48.465401,-122.559998,"[{""name"":""US EPA AirNow"",""url"":""http://www.airnow.gov/""},{""name"":""Washington Department of Ecology""}]"
Oak Harbor-SW 6th (U,ISLAND,US,2017-02-28T08:00:00.000Z,2017-02-28T00:00:00-08:00,pm25,5.9,µg/m³,48.294399,-122.660004,"[{""name"":""US EPA AirNow"",""url"":""http://www.airnow.gov/""},{""name"":""Washington Department of Ecology""}]"
White Swan-Yakama Tr,YAKIMA,US,2017-02-28T08:00:00.000Z,2017-02-28T00:00:00-08:00,pm25,2.3,µg/m³,46.375431,-120.729317,"[{""name"":""US EPA AirNow"",""url"":""http://www.airnow.gov/""},{""name"":""Washington Department of Ecology""}]"
"Davenport, Hayes Sch",SCOTT,US,2017-02-28T08:00:00.000Z,2017-02-28T02:00:00-06:00,pm25,14,µg/m³,41.512032,-90.624016,"[{""name"":""US EPA AirNow"",""url"":""http://www.airnow.gov/""},{""name"":""Iowa DNR""}]"
Neah Bay 2-Makah Tri,Port Angeles,US,2017-02-28T08:00:00.000Z,2017-02-28T00:00:00-08:00,pm25,15.1,µg/m³,48.366058,-124.610046,"[{""name"":""US EPA AirNow"",""url"":""http://www.airnow.gov/""},{""name"":""Washington Department of Ecology""}]"
GANDY,Tampa-St. Petersburg-Clearwater,US,2017-02-28T08:00:00.000Z,2017-02-28T03:00:00-05:00,pm25,14.7,µg/m³,27.8928,-82.5383,"[{""name"":""US EPA AirNow"",""url"":""http://www.airnow.gov/""},{""name"":""Hillsborough County - Tampa""}]"
Macon Forestry,Macon,US,2017-02-28T08:00:00.000Z,2017-02-28T03:00:00-05:00,pm25,2.2,µg/m³,32.8031,-83.5447,"[{""name"":""US EPA AirNow"",""url"":""http://www.airnow.gov/""},{""name"":""Georgia Department of Natural Resources""}]"
Confederate Ave,Atlanta-Sandy Springs-Marietta,US,2017-02-28T08:00:00.000Z,2017-02-28T03:00:00-05:00,pm25,11.3,µg/m³,33.7206,-84.3578,"[{""name"":""US EPA AirNow"",""url"":""http://www.airnow.gov/""},{""name"":""Georgia Department of Natural Resources""}]"
Gwinnett Tech,Atlanta-Sandy Springs-Marietta,US,2017-02-28T08:00:00.000Z,2017-02-28T03:00:00-05:00,pm25,12.8,µg/m³,33.9636,-84.0664,"[{""name"":""US EPA AirNow"",""url"":""http://www.airnow.gov/""},{""name"":""Georgia Department of Natural Resources""}]"
Columbus Airport,Columbus,US,2017-02-28T08:00:00.000Z,2017-02-28T03:00:00-05:00,pm25,5,µg/m³,32.5214,-84.9436,"[{""name"":""US EPA AirNow"",""url"":""http://www.airnow.gov/""},{""name"":""Georgia Department of Natural Resources""}]"
Augusta,Augusta-Richmond County,US,2017-02-28T08:00:00.000Z,2017-02-28T03:00:00-05:00,pm25,11.4,µg/m³,33.4333,-82.0219,"[{""name"":""US EPA AirNow"",""url"":""http://www.airnow.gov/""},{""name"":""Georgia Department of Natural Resources""}]"
Honolulu,Honolulu,US,2017-02-28T08:00:00.000Z,2017-02-27T22:00:00-10:00,pm25,0,µg/m³,21.310301,-157.858093,"[{""name"":""US EPA AirNow"",""url"":""http://www.airnow.gov/""},{""name"":""Hawaii State Dept. of Health""}]"
SAND ISLAND 2 - ANUE,Honolulu,US,2017-02-28T08:00:00.000Z,2017-02-27T22:00:00-10:00,pm25,-1,µg/m³,21.3039,-157.8711,"[{""name"":""US EPA AirNow"",""url"":""http://www.airnow.gov/""},{""name"":""Hawaii State Dept. of Health""}]"
Pocatello Garrett an,Pocatello,US,2017-02-28T08:00:00.000Z,2017-02-28T01:00:00-07:00,pm25,2.9,µg/m³,42.876701,-112.460297,"[{""name"":""US EPA AirNow"",""url"":""http://www.airnow.gov/""},{""name"":""Idaho Department of Environmental Quality""}]"
ALSIP,Chicago-Naperville-Joliet,US,2017-02-28T08:00:00.000Z,2017-02-28T02:00:00-06:00,pm25,10.6,µg/m³,41.6708,-87.7325,"[{""name"":""US EPA AirNow"",""url"":""http://www.airnow.gov/""},{""name"":""Illinois EPA""}]"
NORTHBRK,Chicago-Naperville-Joliet,US,2017-02-28T08:00:00.000Z,2017-02-28T02:00:00-06:00,pm25,21.6,µg/m³,42.1406,-87.7994,"[{""name"":""US EPA AirNow"",""url"":""http://www.airnow.gov/""},{""name"":""Illinois EPA""}]"
CARY,Chicago-Naperville-Joliet,US,2017-02-28T08:00:00.000Z,2017-02-28T02:00:00-06:00,pm25,16.4,µg/m³,42.2211,-88.2411,"[{""name"":""US EPA AirNow"",""url"":""http://www.airnow.gov/""},{""name"":""Illinois EPA""}]"
East St. Louis,St. Louis,US,2017-02-28T08:00:00.000Z,2017-02-28T02:00:00-06:00,pm25,4.5,µg/m³,38.611893,-90.160614,"[{""name"":""US EPA AirNow"",""url"":""http://www.airnow.gov/""},{""name"":""Illinois EPA""}]"
BRAIDWD,Chicago-Naperville-Joliet,US,2017-02-28T08:00:00.000Z,2017-02-28T02:00:00-06:00,pm25,9.2,µg/m³,41.2222,-88.1906,"[{""name"":""US EPA AirNow"",""url"":""http://www.airnow.gov/""},{""name"":""Illinois EPA""}]"
"Clinton, Rainbow Par",Clinton,US,2017-02-28T08:00:00.000Z,2017-02-28T02:00:00-06:00,pm25,15,µg/m³,41.875,-90.177498,"[{""name"":""US EPA AirNow"",""url"":""http://www.airnow.gov/""},{""name"":""Iowa DNR""}]"
"Emmetsburg, ILCC",PALO ALTO,US,2017-02-28T08:00:00.000Z,2017-02-28T02:00:00-06:00,pm25,12,µg/m³,43.123299,-94.693298,"[{""name"":""US EPA AirNow"",""url"":""http://www.airnow.gov/""},{""name"":""Iowa DNR""}]"
WHlthDpt,Wichita,US,2017-02-28T08:00:00.000Z,2017-02-28T02:00:00-06:00,pm25,14.2,µg/m³,37.7011,-97.3139,"[{""name"":""US EPA AirNow"",""url"":""http://www.airnow.gov/""},{""name"":""Kansas Dept. of Health and Environment""}]"
Mammoth Cave NP,Bowling Green,US,2017-02-28T08:00:00.000Z,2017-02-28T02:00:00-06:00,pm25,8.3,µg/m³,37.1314,-86.1481,"[{""name"":""US EPA AirNow"",""url"":""http://www.airnow.gov/""},{""name"":""National Park Service""}]"
OWENPRI,Owensboro,US,2017-02-28T08:00:00.000Z,2017-02-28T02:00:00-06:00,pm25,8.1,µg/m³,37.7808,-87.0756,"[{""name"":""US EPA AirNow"",""url"":""http://www.airnow.gov/""},{""name"":""Kentucky DEP""}]"
BATES,Louisville,US,2017-02-28T08:00:00.000Z,2017-02-28T03:00:00-05:00,pm25,7.1,µg/m³,38.1372,-85.5783,"[{""name"":""US EPA AirNow"",""url"":""http://www.airnow.gov/""},{""name"":""Louisville Metro Air Pollution Control District""}]"
WATSON,Louisville,US,2017-02-28T08:00:00.000Z,2017-02-28T03:00:00-05:00,pm25,7.3,µg/m³,38.0608,-85.8961,"[{""name"":""US EPA AirNow"",""url"":""http://www.airnow.gov/""},{""name"":""Louisville Metro Air Pollution Control District""}]"
Shreveport Airport,Shreveport-Bossier City,US,2017-02-28T08:00:00.000Z,2017-02-28T02:00:00-06:00,pm25,10.3,µg/m³,32.5364,-93.7492,"[{""name"":""US EPA AirNow"",""url"":""http://www.airnow.gov/""},{""name"":""Louisiana Department of Environmental Quality""}]"
Capitol,Baton Rouge,US,2017-02-28T08:00:00.000Z,2017-02-28T02:00:00-06:00,pm25,7.4,µg/m³,30.4622,-91.1769,"[{""name"":""US EPA AirNow"",""url"":""http://www.airnow.gov/""},{""name"":""Louisiana Department of Environmental Quality""}]"
Kenner,New Orleans-Metairie-Kenner,US,2017-02-28T08:00:00.000Z,2017-02-28T02:00:00-06:00,pm25,8.2,µg/m³,30.0411,-90.2728,"[{""name"":""US EPA AirNow"",""url"":""http://www.airnow.gov/""},{""name"":""Louisiana Department of Environmental Quality""}]"
French Settlement,Baton Rouge,US,2017-02-28T08:00:00.000Z,2017-02-28T02:00:00-06:00,pm25,9.3,µg/m³,30.315,-90.8114,"[{""name"":""US EPA AirNow"",""url"":""http://www.airnow.gov/""},{""name"":""Louisiana Department of Environmental Quality""}]"
City Park,New Orleans-Metairie-Kenner,US,2017-02-28T08:00:00.000Z,2017-02-28T02:00:00-06:00,pm25,12.2,µg/m³,29.9933,-90.1014,"[{""name"":""US EPA AirNow"",""url"":""http://www.airnow.gov/""},{""name"":""Louisiana Department of Environmental Quality""}]"
Acadia NP - McFarlan,HANCOCK,US,2017-02-28T08:00:00.000Z,2017-02-28T03:00:00-05:00,pm25,6,µg/m³,44.377048,-68.260902,"[{""name"":""US EPA AirNow"",""url"":""http://www.airnow.gov/""},{""name"":""Maine Dept. of Environmental Protection""}]"
Underhill,Burlington-South Burlington,US,2017-02-28T08:00:00.000Z,2017-02-28T03:00:00-05:00,pm25,9.5,µg/m³,44.528389,-72.868973,"[{""name"":""US EPA AirNow"",""url"":""http://www.airnow.gov/""},{""name"":""Vermont Air Quality & Climate Division""}]"
FRANCONIA,Washington-Arlington-Alexandria,US,2017-02-28T08:00:00.000Z,2017-02-28T03:00:00-05:00,pm25,4.1,µg/m³,38.771702,-77.108902,"[{""name"":""US EPA AirNow"",""url"":""http://www.airnow.gov/""},{""name"":""Virginia Dept. of Environmental Quality""}]"
BUTLER MANUF. CO NEA,Winchester,US,2017-02-28T08:00:00.000Z,2017-02-28T03:00:00-05:00,pm25,5.7,µg/m³,39.282799,-78.081398,"[{""name"":""US EPA AirNow"",""url"":""http://www.airnow.gov/""},{""name"":""Virginia Dept. of Environmental Quality""}]"
MATH & SCIENCE CTR,Richmond,US,2017-02-28T08:00:00.000Z,2017-02-28T03:00:00-05:00,pm25,9.9,µg/m³,37.55652,-77.40027,"[{""name"":""US EPA AirNow"",""url"":""http://www.airnow.gov/""},{""name"":""Virginia Dept. of Environmental Quality""}]"
North Bend-North Ben,Seattle-Tacoma-Bellevue,US,2017-02-28T08:00:00.000Z,2017-02-28T00:00:00-08:00,pm25,8.6,µg/m³,47.4902,-121.772697,"[{""name"":""US EPA AirNow"",""url"":""http://www.airnow.gov/""},{""name"":""Washington Department of Ecology""}]"
Seattle-Beacon Hill,Seattle-Tacoma-Bellevue,US,2017-02-28T08:00:00.000Z,2017-02-28T00:00:00-08:00,pm25,4.6,µg/m³,47.568236,-122.308628,"[{""name"":""US EPA AirNow"",""url"":""http://www.airnow.gov/""},{""name"":""Washington Department of Ecology""}]"
NORMAL,Bloomington-Normal,US,2017-02-28T08:00:00.000Z,2017-02-28T02:00:00-06:00,pm25,12,µg/m³,40.5169,-88.9975,"[{""name"":""US EPA AirNow"",""url"":""http://www.airnow.gov/""},{""name"":""Illinois EPA""}]"
Cedrbluf,TREGO,US,2017-02-28T08:00:00.000Z,2017-02-28T02:00:00-06:00,pm25,-0.3,µg/m³,38.7703,-99.7636,"[{""name"":""US EPA AirNow"",""url"":""http://www.airnow.gov/""},{""name"":""Kansas Dept. of Health and Environment""}]"
WY/KC,Kansas City,US,2017-02-28T08:00:00.000Z,2017-02-28T02:00:00-06:00,pm25,17.7,µg/m³,39.1175,-94.6356,"[{""name"":""US EPA AirNow"",""url"":""http://www.airnow.gov/""},{""name"":""Kansas Dept. of Health and Environment""}]"
NEWG,Philadelphia-Camden-Wilmington,US,2017-02-28T08:00:00.000Z,2017-02-28T03:00:00-05:00,pm25,13,µg/m³,39.8344,-75.7678,"[{""name"":""US EPA AirNow"",""url"":""http://www.airnow.gov/""},{""name"":""Pennsylvania Dept. of Environmental Protection""}]"
Narragansett,Providence-New Bedford-Fall River,US,2017-02-28T08:00:00.000Z,2017-02-28T03:00:00-05:00,pm25,7,µg/m³,41.4942,-71.4219,"[{""name"":""US EPA AirNow"",""url"":""http://www.airnow.gov/""},{""name"":""Rhode Island Dept. of Environmental Management""}]"
Kaufman C71,Dallas-Fort Worth-Arlington,US,2017-02-28T08:00:00.000Z,2017-02-28T02:00:00-06:00,pm25,15.7,µg/m³,32.565,-96.3175,"[{""name"":""US EPA AirNow"",""url"":""http://www.airnow.gov/""},{""name"":""Texas Commission on Environmental Quality""}]"
ETOWN2,Elizabethtown,US,2017-02-28T08:00:00.000Z,2017-02-28T03:00:00-05:00,pm25,9.5,µg/m³,37.7064,-85.8517,"[{""name"":""US EPA AirNow"",""url"":""http://www.airnow.gov/""},{""name"":""Kentucky DEP""}]"
LEEDS,Birmingham-Hoover,US,2017-02-28T08:00:00.000Z,2017-02-28T02:00:00-06:00,pm25,7.4,µg/m³,33.5453,-86.5492,"[{""name"":""US EPA AirNow"",""url"":""http://www.airnow.gov/""},{""name"":""Jefferson County Department of Health""}]"
Sparks,Reno-Sparks,US,2017-02-28T08:00:00.000Z,2017-02-28T00:00:00-08:00,pm25,2,µg/m³,39.540916,-119.746758,"[{""name"":""US EPA AirNow"",""url"":""http://www.airnow.gov/""},{""name"":""Washoe County Health District Air Quality Management Division""}]"
Rose Elementary,Tucson,US,2017-02-28T08:00:00.000Z,2017-02-28T01:00:00-07:00,pm25,3,µg/m³,32.1731,-110.9797,"[{""name"":""US EPA AirNow"",""url"":""http://www.airnow.gov/""},{""name"":""Pima County Department of Environmental Quality""}]"
Coachline,Tucson,US,2017-02-28T08:00:00.000Z,2017-02-28T01:00:00-07:00,pm25,0,µg/m³,32.3806,-111.1272,"[{""name"":""US EPA AirNow"",""url"":""http://www.airnow.gov/""},{""name"":""Pima County Department of Environmental Quality""}]"
Green Valley,Tucson,US,2017-02-28T08:00:00.000Z,2017-02-28T01:00:00-07:00,pm25,1,µg/m³,31.8794,-110.9964,"[{""name"":""US EPA AirNow"",""url"":""http://www.airnow.gov/""},{""name"":""Pima County Department of Environmental Quality""}]"
Sequoia and Kings Ca,Visalia-Porterville,US,2017-02-28T08:00:00.000Z,2017-02-28T00:00:00-08:00,pm25,9,µg/m³,36.489399,-118.826897,"[{""name"":""US EPA AirNow"",""url"":""http://www.airnow.gov/""},{""name"":""National Park Service""}]"
Seabrook Friendship,Houston-Sugar Land-Baytown,US,2017-02-28T08:00:00.000Z,2017-02-28T02:00:00-06:00,pm25,8.7,µg/m³,29.5831,-95.0156,"[{""name"":""US EPA AirNow"",""url"":""http://www.airnow.gov/""},{""name"":""Texas Commission on Environmental Quality""}]"
Karnack C85,Marshall,US,2017-02-28T08:00:00.000Z,2017-02-28T02:00:00-06:00,pm25,5.6,µg/m³,32.6706,-94.1681,"[{""name"":""US EPA AirNow"",""url"":""http://www.airnow.gov/""},{""name"":""Texas Commission on Environmental Quality""}]"
Conroe Relocated C78,Houston-Sugar Land-Baytown,US,2017-02-28T08:00:00.000Z,2017-02-28T02:00:00-06:00,pm25,16.8,µg/m³,30.3503,-95.425,"[{""name"":""US EPA AirNow"",""url"":""http://www.airnow.gov/""},{""name"":""Texas Commission on Environmental Quality""}]"
Bangor,Bangor,US,2017-02-28T08:00:00.000Z,2017-02-28T03:00:00-05:00,pm25,20,µg/m³,44.798859,-68.769676,"[{""name"":""US EPA AirNow"",""url"":""http://www.airnow.gov/""},{""name"":""Maine Dept. of Environmental Protection""}]"
Puyallup-128th St,Seattle-Tacoma-Bellevue,US,2017-02-28T08:00:00.000Z,2017-02-28T00:00:00-08:00,pm25,1.6,µg/m³,47.140499,-122.299202,"[{""name"":""US EPA AirNow"",""url"":""http://www.airnow.gov/""},{""name"":""Washington Department of Ecology""}]"
Savannah L&A,Savannah,US,2017-02-28T08:00:00.000Z,2017-02-28T03:00:00-05:00,pm25,8.9,µg/m³,32.0903,-81.1306,"[{""name"":""US EPA AirNow"",""url"":""http://www.airnow.gov/""},{""name"":""Georgia Department of Natural Resources""}]"
Canton,Canton-Massillon,US,2017-02-28T08:00:00.000Z,2017-02-28T03:00:00-05:00,pm25,19,µg/m³,40.800797,-81.372853,"[{""name"":""US EPA AirNow"",""url"":""http://www.airnow.gov/""},{""name"":""Ohio EPA-DAPC""}]"
Aberdeen-Division St,Aberdeen,US,2017-02-28T08:00:00.000Z,2017-02-28T00:00:00-08:00,pm25,10.2,µg/m³,46.9772,-123.8317,"[{""name"":""US EPA AirNow"",""url"":""http://www.airnow.gov/""},{""name"":""Washington Department of Ecology""}]"
Port Townsend-San Ju,JEFFERSON,US,2017-02-28T08:00:00.000Z,2017-02-28T00:00:00-08:00,pm25,5.2,µg/m³,48.129101,-122.7789,"[{""name"":""US EPA AirNow"",""url"":""http://www.airnow.gov/""},{""name"":""Washington Department of Ecology""}]"
St. Paul-Harding H.S,Minneapolis-St. Paul-Bloomington,US,2017-02-28T08:00:00.000Z,2017-02-28T02:00:00-06:00,pm25,13,µg/m³,44.9594,-93.0356,"[{""name"":""US EPA AirNow"",""url"":""http://www.airnow.gov/""},{""name"":""Minnesota Pollution Control Agency""}]"
Corpus Christi - Nat,Kingsville,US,2017-02-28T08:00:00.000Z,2017-02-28T02:00:00-06:00,pm25,12.9,µg/m³,27.4269,-97.2986,"[{""name"":""US EPA AirNow"",""url"":""http://www.airnow.gov/""},{""name"":""Texas Commission on Environmental Quality""}]"
Nampa Fire Station,Boise City-Nampa,US,2017-02-28T08:00:00.000Z,2017-02-28T01:00:00-07:00,pm25,1,µg/m³,43.58031,-116.562676,"[{""name"":""US EPA AirNow"",""url"":""http://www.airnow.gov/""},{""name"":""Idaho Department of Environmental Quality""}]"
Salmon PM2.5,LEMHI,US,2017-02-28T08:00:00.000Z,2017-02-28T01:00:00-07:00,pm25,20,µg/m³,45.178699,-113.892998,"[{""name"":""US EPA AirNow"",""url"":""http://www.airnow.gov/""},{""name"":""Idaho Department of Environmental Quality""}]"
Lewiston,Lewiston,US,2017-02-28T08:00:00.000Z,2017-02-28T00:00:00-08:00,pm25,10,µg/m³,46.408501,-116.991402,"[{""name"":""US EPA AirNow"",""url"":""http://www.airnow.gov/""},{""name"":""Idaho Department of Environmental Quality""}]"
Apple Valley,Minneapolis-St. Paul-Bloomington,US,2017-02-28T08:00:00.000Z,2017-02-28T02:00:00-06:00,pm25,15,µg/m³,44.7383,-93.2372,"[{""name"":""US EPA AirNow"",""url"":""http://www.airnow.gov/""},{""name"":""Minnesota Pollution Control Agency""}]"
Minneapolis-Phillips,Minneapolis-St. Paul-Bloomington,US,2017-02-28T08:00:00.000Z,2017-02-28T02:00:00-06:00,pm25,12,µg/m³,44.9536,-93.2581,"[{""name"":""US EPA AirNow"",""url"":""http://www.airnow.gov/""},{""name"":""Minnesota Pollution Control Agency""}]"
St. Michael,Minneapolis-St. Paul-Bloomington,US,2017-02-28T08:00:00.000Z,2017-02-28T02:00:00-06:00,pm25,9,µg/m³,45.2108,-93.6686,"[{""name"":""US EPA AirNow"",""url"":""http://www.airnow.gov/""},{""name"":""Minnesota Pollution Control Agency""}]"
St. Cloud,Minneapolis-St. Paul-Bloomington,US,2017-02-28T08:00:00.000Z,2017-02-28T02:00:00-06:00,pm25,20,µg/m³,45.55,-94.1333,"[{""name"":""US EPA AirNow"",""url"":""http://www.airnow.gov/""},{""name"":""Minnesota Pollution Control Agency""}]"
Rochester,Rochester,US,2017-02-28T08:00:00.000Z,2017-02-28T02:00:00-06:00,pm25,7,µg/m³,43.9947,-92.4497,"[{""name"":""US EPA AirNow"",""url"":""http://www.airnow.gov/""},{""name"":""Minnesota Pollution Control Agency""}]"
MLK,Philadelphia-Camden-Wilmington,US,2017-02-28T08:00:00.000Z,2017-02-28T03:00:00-05:00,pm25,10,µg/m³,39.7394,-75.5581,"[{""name"":""US EPA AirNow"",""url"":""http://www.airnow.gov/""},{""name"":""Delaware Dept. of Natural Resources and Environment""}]"
CHI_COM,Chicago-Naperville-Joliet,US,2017-02-28T08:00:00.000Z,2017-02-28T02:00:00-06:00,pm25,14.9,µg/m³,41.7547,-87.7136,"[{""name"":""US EPA AirNow"",""url"":""http://www.airnow.gov/""},{""name"":""Illinois EPA""}]"
CHI_SP,Chicago-Naperville-Joliet,US,2017-02-28T08:00:00.000Z,2017-02-28T02:00:00-06:00,pm25,13.2,µg/m³,41.9136,-87.7239,"[{""name"":""US EPA AirNow"",""url"":""http://www.airnow.gov/""},{""name"":""Illinois EPA""}]"
DEARBORN,Detroit-Warren-Livonia,US,2017-02-28T08:00:00.000Z,2017-02-28T03:00:00-05:00,pm25,27.1,µg/m³,42.3075,-83.15,"[{""name"":""US EPA AirNow"",""url"":""http://www.airnow.gov/""},{""name"":""Michigan Department of Environmental Quality""}]"
Geronimo,Tucson,US,2017-02-28T08:00:00.000Z,2017-02-28T01:00:00-07:00,pm25,1,µg/m³,32.25,-110.9667,"[{""name"":""US EPA AirNow"",""url"":""http://www.airnow.gov/""},{""name"":""Pima County Department of Environmental Quality""}]"
GreenValley,Las Vegas-Paradise,US,2017-02-28T08:00:00.000Z,2017-02-28T00:00:00-08:00,pm25,8.5,µg/m³,36.048739,-115.052881,"[{""name"":""US EPA AirNow"",""url"":""http://www.airnow.gov/""},{""name"":""Clark County Department of Air Quality""}]"
Columbus - Fairgroun,Columbus,US,2017-02-28T08:00:00.000Z,2017-02-28T03:00:00-05:00,pm25,3.7,µg/m³,40.002734,-82.994404,"[{""name"":""US EPA AirNow"",""url"":""http://www.airnow.gov/""},{""name"":""Ohio EPA-DAPC""}]"
Butte Greely School,SILVER BOW,US,2017-02-28T08:00:00.000Z,2017-02-28T01:00:00-07:00,pm25,1.5,µg/m³,46.002399,-112.500893,"[{""name"":""US EPA AirNow"",""url"":""http://www.airnow.gov/""},{""name"":""Montana DEQ""}]"
Billings St. Luke's,Billings,US,2017-02-28T08:00:00.000Z,2017-02-28T01:00:00-07:00,pm25,9.5,µg/m³,45.782181,-108.511528,"[{""name"":""US EPA AirNow"",""url"":""http://www.airnow.gov/""},{""name"":""Montana DEQ""}]"
Palmer,MATANUSKA-SUSITNA,US,2017-02-28T08:00:00.000Z,2017-02-27T23:00:00-09:00,pm25,7,µg/m³,61.5989,-149.106216,"[{""name"":""US EPA AirNow"",""url"":""http://www.airnow.gov/""},{""name"":""State of Alaska DEC""}]"
San Luis Obispo - Hi,SAN LUIS OBISPO,US,2017-02-28T08:00:00.000Z,2017-02-28T00:00:00-08:00,pm25,-1,µg/m³,35.25639,-120.668892,"[{""name"":""US EPA AirNow"",""url"":""http://www.airnow.gov/""},{""name"":""California Air Resources Board""}]"
Pearl City,Honolulu,US,2017-02-28T08:00:00.000Z,2017-02-27T22:00:00-10:00,pm25,3,µg/m³,21.392834,-157.969131,"[{""name"":""US EPA AirNow"",""url"":""http://www.airnow.gov/""},{""name"":""Hawaii State Dept. of Health""}]"
Bonners Ferry Kooten,BOUNDARY,US,2017-02-28T08:00:00.000Z,2017-02-28T00:00:00-08:00,pm25,5.6,µg/m³,48.705551,-116.368965,"[{""name"":""US EPA AirNow"",""url"":""http://www.airnow.gov/""},{""name"":""Idaho Department of Environmental Quality""}]"
Floyd Dryden,JUNEAU,US,2017-02-28T08:00:00.000Z,2017-02-27T23:00:00-09:00,pm25,6,µg/m³,58.388889,-134.565556,"[{""name"":""US EPA AirNow"",""url"":""http://www.airnow.gov/""},{""name"":""State of Alaska DEC""}]"
ROLAND,Fort Smith,US,2017-02-28T08:00:00.000Z,2017-02-28T02:00:00-06:00,pm25,8.7,µg/m³,35.408138,-94.524414,"[{""name"":""US EPA AirNow"",""url"":""http://www.airnow.gov/""},{""name"":""Cherokee Nation""}]"
Nipomo Mesa CDF,SAN LUIS OBISPO,US,2017-02-28T08:00:00.000Z,2017-02-28T00:00:00-08:00,pm25,8,µg/m³,35.04676,-120.58777,"[{""name"":""US EPA AirNow"",""url"":""http://www.airnow.gov/""},{""name"":""San Luis Obispo County APCD""}]"
McMillan NCORE,WASHINGTON,US,2017-02-28T08:00:00.000Z,2017-02-28T03:00:00-05:00,pm25,8,µg/m³,38.921848,-77.013176,"[{""name"":""US EPA AirNow"",""url"":""http://www.airnow.gov/""},{""name"":""District of Columbia - Department of Energy and Environment""}]"
"Rangely, CO",RIO BLANCO,US,2017-02-28T08:00:00.000Z,2017-02-28T01:00:00-07:00,pm25,2,µg/m³,40.086941,-108.761002,"[{""name"":""US EPA AirNow"",""url"":""http://www.airnow.gov/""},{""name"":""National Park Service""}]"
Haws Athletic Center,Dallas-Fort Worth-Arlington,US,2017-02-28T08:00:00.000Z,2017-02-28T02:00:00-06:00,pm25,14.6,µg/m³,32.7592,-97.3414,"[{""name"":""US EPA AirNow"",""url"":""http://www.airnow.gov/""},{""name"":""Texas Commission on Environmental Quality""}]"
Arlington Municipal,Dallas-Fort Worth-Arlington,US,2017-02-28T08:00:00.000Z,2017-02-28T02:00:00-06:00,pm25,18.1,µg/m³,32.6558,-97.0886,"[{""name"":""US EPA AirNow"",""url"":""http://www.airnow.gov/""},{""name"":""Texas Commission on Environmental Quality""}]"
RUTLAND,Rutland,US,2017-02-28T08:00:00.000Z,2017-02-28T03:00:00-05:00,pm25,18,µg/m³,43.608528,-72.98246,"[{""name"":""US EPA AirNow"",""url"":""http://www.airnow.gov/""},{""name"":""Vermont Air Quality & Climate Division""}]"
New Albany,Columbus,US,2017-02-28T08:00:00.000Z,2017-02-28T03:00:00-05:00,pm25,7.2,µg/m³,40.0845,-82.81552,"[{""name"":""US EPA AirNow"",""url"":""http://www.airnow.gov/""},{""name"":""Ohio EPA-DAPC""}]"
SENEY,SCHOOLCRAFT,US,2017-02-28T08:00:00.000Z,2017-02-28T03:00:00-05:00,pm25,5,µg/m³,46.2889,-85.9503,"[{""name"":""US EPA AirNow"",""url"":""http://www.airnow.gov/""},{""name"":""Michigan Department of Environmental Quality""}]"
Newnan,Atlanta-Sandy Springs-Marietta,US,2017-02-28T08:00:00.000Z,2017-02-28T03:00:00-05:00,pm25,10.2,µg/m³,33.4039,-84.7461,"[{""name"":""US EPA AirNow"",""url"":""http://www.airnow.gov/""},{""name"":""Georgia Department of Natural Resources""}]"
McDonough,Atlanta-Sandy Springs-Marietta,US,2017-02-28T08:00:00.000Z,2017-02-28T03:00:00-05:00,pm25,11.2,µg/m³,33.4347,-84.1617,"[{""name"":""US EPA AirNow"",""url"":""http://www.airnow.gov/""},{""name"":""Georgia Department of Natural Resources""}]"
FIVCO,Huntington-Ashland,US,2017-02-28T08:00:00.000Z,2017-02-28T03:00:00-05:00,pm25,7.1,µg/m³,38.4592,-82.6339,"[{""name"":""US EPA AirNow"",""url"":""http://www.airnow.gov/""},{""name"":""Kentucky DEP""}]"
DESPLNS,Chicago-Naperville-Joliet,US,2017-02-28T08:00:00.000Z,2017-02-28T02:00:00-06:00,pm25,13.2,µg/m³,42.0603,-87.8631,"[{""name"":""US EPA AirNow"",""url"":""http://www.airnow.gov/""},{""name"":""Illinois EPA""}]"
MENDNHAL,Greensboro-High Point,US,2017-02-28T08:00:00.000Z,2017-02-28T03:00:00-05:00,pm25,12,µg/m³,36.1092,-79.8011,"[{""name"":""US EPA AirNow"",""url"":""http://www.airnow.gov/""},{""name"":""North Carolina DEQ - Divison of Air Quality""}]"
W OWEN SCH,Fayetteville,US,2017-02-28T08:00:00.000Z,2017-02-28T03:00:00-05:00,pm25,9,µg/m³,35.041401,-78.953102,"[{""name"":""US EPA AirNow"",""url"":""http://www.airnow.gov/""},{""name"":""North Carolina DEQ - Divison of Air Quality""}]"
Lewiston,Lewiston-Auburn,US,2017-02-28T08:00:00.000Z,2017-02-28T03:00:00-05:00,pm25,15,µg/m³,44.089355,-70.214134,"[{""name"":""US EPA AirNow"",""url"":""http://www.airnow.gov/""},{""name"":""Maine Dept. of Environmental Protection""}]"
SAULT STE MARIE,Sault Ste. Marie,US,2017-02-28T08:00:00.000Z,2017-02-28T03:00:00-05:00,pm25,7,µg/m³,46.49361,-84.364197,"[{""name"":""US EPA AirNow"",""url"":""http://www.airnow.gov/""},{""name"":""Michigan Department of Environmental Quality""}]"
"Clinton, Chancy Park",Clinton,US,2017-02-28T08:00:00.000Z,2017-02-28T02:00:00-06:00,pm25,19,µg/m³,41.823101,-90.211899,"[{""name"":""US EPA AirNow"",""url"":""http://www.airnow.gov/""},{""name"":""Iowa DNR""}]"
"Davenport, 10th & Vi",Davenport-Moline-Rock Island,US,2017-02-28T08:00:00.000Z,2017-02-28T02:00:00-06:00,pm25,21,µg/m³,41.529999,-90.587502,"[{""name"":""US EPA AirNow"",""url"":""http://www.airnow.gov/""},{""name"":""Iowa DNR""}]"
Cornwall,Torrington,US,2017-02-28T08:00:00.000Z,2017-02-28T03:00:00-05:00,pm25,8,µg/m³,41.833099,-73.303299,"[{""name"":""US EPA AirNow"",""url"":""http://www.airnow.gov/""},{""name"":""Connecticut Dept. of Energy and Environmental Protection""}]"
Santa Fe Airport,Santa Fe,US,2017-02-28T08:00:00.000Z,2017-02-28T01:00:00-07:00,pm25,0,µg/m³,35.6198,-106.0797,"[{""name"":""US EPA AirNow"",""url"":""http://www.airnow.gov/""},{""name"":""New Mexico Air Quality Bureau""}]"
Taholah-Quinault Tri,Aberdeen,US,2017-02-28T08:00:00.000Z,2017-02-28T00:00:00-08:00,pm25,3.4,µg/m³,47.339802,-124.291801,"[{""name"":""US EPA AirNow"",""url"":""http://www.airnow.gov/""},{""name"":""Washington Department of Ecology""}]"
Indpls-W.18th St,Indianapolis,US,2017-02-28T08:00:00.000Z,2017-02-28T03:00:00-05:00,pm25,5.7,µg/m³,39.7889,-86.2147,"[{""name"":""US EPA AirNow"",""url"":""http://www.airnow.gov/""},{""name"":""Indiana Dept. of Environmental Management 2""}]"
Mt Vernon-2nd Ave,Mount Vernon-Anacortes,US,2017-02-28T08:00:00.000Z,2017-02-28T00:00:00-08:00,pm25,3.4,µg/m³,48.410198,-122.337601,"[{""name"":""US EPA AirNow"",""url"":""http://www.airnow.gov/""},{""name"":""Washington Department of Ecology""}]"
Plummer CDA Tribe,BENEWAH,US,2017-02-28T08:00:00.000Z,2017-02-28T00:00:00-08:00,pm25,3,µg/m³,47.3386,-116.885902,"[{""name"":""US EPA AirNow"",""url"":""http://www.airnow.gov/""},{""name"":""Idaho Department of Environmental Quality""}]"
"Iowa City, Hoover Sc",Iowa City,US,2017-02-28T08:00:00.000Z,2017-02-28T02:00:00-06:00,pm25,11.9,µg/m³,41.658195,-91.503471,"[{""name"":""US EPA AirNow"",""url"":""http://www.airnow.gov/""},{""name"":""Iowa DNR""}]"
Lawton North,Lawton,US,2017-02-28T08:00:00.000Z,2017-02-28T02:00:00-06:00,pm25,18.7,µg/m³,34.632999,-98.428802,"[{""name"":""US EPA AirNow"",""url"":""http://www.airnow.gov/""},{""name"":""Oklahoma Department of Environmental Quality""}]"
Warner Robins,Warner Robins,US,2017-02-28T08:00:00.000Z,2017-02-28T03:00:00-05:00,pm25,4.2,µg/m³,32.6056,-83.5979,"[{""name"":""US EPA AirNow"",""url"":""http://www.airnow.gov/""},{""name"":""Georgia Department of Natural Resources""}]"
Valdosta,Valdosta,US,2017-02-28T08:00:00.000Z,2017-02-28T03:00:00-05:00,pm25,14,µg/m³,30.8486,-83.2933,"[{""name"":""US EPA AirNow"",""url"":""http://www.airnow.gov/""},{""name"":""Georgia Department of Natural Resources""}]"
PUBLIC HEALTH,Cedar Rapids,US,2017-02-28T08:00:00.000Z,2017-02-28T02:00:00-06:00,pm25,11,µg/m³,41.9767,-91.6878,"[{""name"":""US EPA AirNow"",""url"":""http://www.airnow.gov/""},{""name"":""Linn Co. Public Health""}]"
PUBLIC HEALTH 4,Cedar Rapids,US,2017-02-28T08:00:00.000Z,2017-02-28T02:00:00-06:00,pm25,10,µg/m³,41.97677,-91.68766,"[{""name"":""US EPA AirNow"",""url"":""http://www.airnow.gov/""},{""name"":""Linn Co. Public Health""}]"
Charleston Public Wo,Charleston-North Charleston,US,2017-02-28T08:00:00.000Z,2017-02-28T03:00:00-05:00,pm25,1.6,µg/m³,32.791,-79.959,"[{""name"":""US EPA AirNow"",""url"":""http://www.airnow.gov/""},{""name"":""South Carolina DHEC""}]"
PITTAGCT,Greenville,US,2017-02-28T08:00:00.000Z,2017-02-28T03:00:00-05:00,pm25,7,µg/m³,35.638599,-77.358002,"[{""name"":""US EPA AirNow"",""url"":""http://www.airnow.gov/""},{""name"":""North Carolina DEQ - Divison of Air Quality""}]"
Hilo,Hilo,US,2017-02-28T08:00:00.000Z,2017-02-27T22:00:00-10:00,pm25,10,µg/m³,19.717562,-155.110535,"[{""name"":""US EPA AirNow"",""url"":""http://www.airnow.gov/""},{""name"":""Hawaii State Dept. of Health""}]"
Kona,Hilo,US,2017-02-28T08:00:00.000Z,2017-02-27T22:00:00-10:00,pm25,25,µg/m³,19.5097,-155.9133,"[{""name"":""US EPA AirNow"",""url"":""http://www.airnow.gov/""},{""name"":""Hawaii State Dept. of Health""}]"
Pahala,Hilo,US,2017-02-28T08:00:00.000Z,2017-02-27T22:00:00-10:00,pm25,1,µg/m³,19.2065,-155.4689,"[{""name"":""US EPA AirNow"",""url"":""http://www.airnow.gov/""},{""name"":""Hawaii State Dept. of Health""}]"
LAN1,Lancaster,US,2017-02-28T08:00:00.000Z,2017-02-28T03:00:00-05:00,pm25,7.4,µg/m³,40.0439,-76.1125,"[{""name"":""US EPA AirNow"",""url"":""http://www.airnow.gov/""},{""name"":""Pennsylvania Dept. of Environmental Protection""}]"
Colorado College,Colorado Springs,US,2017-02-28T08:00:00.000Z,2017-02-28T01:00:00-07:00,pm25,0.5,µg/m³,38.848,-104.8286,"[{""name"":""US EPA AirNow"",""url"":""http://www.airnow.gov/""},{""name"":""Colorado Department of Public Health and Environment""}]"
Madisonville,New Orleans-Metairie-Kenner,US,2017-02-28T08:00:00.000Z,2017-02-28T02:00:00-06:00,pm25,6.2,µg/m³,30.4293,-90.1997,"[{""name"":""US EPA AirNow"",""url"":""http://www.airnow.gov/""},{""name"":""Louisiana Department of Environmental Quality""}]"
Idaho Falls / Penfor,Idaho Falls,US,2017-02-28T08:00:00.000Z,2017-02-28T01:00:00-07:00,pm25,5,µg/m³,43.4683,-112.053101,"[{""name"":""US EPA AirNow"",""url"":""http://www.airnow.gov/""},{""name"":""Idaho Department of Environmental Quality""}]"
"Kihei, Maui",Kahului-Wailuku,US,2017-02-28T08:00:00.000Z,2017-02-27T22:00:00-10:00,pm25,2,µg/m³,20.7808,-156.4461,"[{""name"":""US EPA AirNow"",""url"":""http://www.airnow.gov/""},{""name"":""Hawaii State Dept. of Health""}]"
Sioux Falls,MINNEHAHA,US,2017-02-28T08:00:00.000Z,2017-02-28T02:00:00-06:00,pm25,11.4,µg/m³,43.54792,-96.700768,"[{""name"":""US EPA AirNow"",""url"":""http://www.airnow.gov/""},{""name"":""South Dakota Department of Environmental and Natural Resources""}]"
Williams Middle Scho,Florence,US,2017-02-28T08:00:00.000Z,2017-02-28T03:00:00-05:00,pm25,3,µg/m³,34.2143,-79.7673,"[{""name"":""US EPA AirNow"",""url"":""http://www.airnow.gov/""},{""name"":""South Carolina DHEC""}]"
St Regis Mohawk-NY,Malone,US,2017-02-28T08:00:00.000Z,2017-02-28T03:00:00-05:00,pm25,5.6,µg/m³,44.980598,-74.695297,"[{""name"":""US EPA AirNow"",""url"":""http://www.airnow.gov/""},{""name"":""Tribal Environmental Exchange Network""}]"
Painesville - JFS,Cleveland-Elyria-Mentor,US,2017-02-28T08:00:00.000Z,2017-02-28T03:00:00-05:00,pm25,5.6,µg/m³,41.726811,-81.242156,"[{""name"":""US EPA AirNow"",""url"":""http://www.airnow.gov/""},{""name"":""Ohio EPA-DAPC""}]"
EBAM8 - Cobb Element,PROXY SITE - CA - CONSTANT,US,2017-02-28T08:00:00.000Z,2017-02-28T00:00:00-08:00,pm25,1,µg/m³,38.8303,-122.722,"[{""name"":""US EPA AirNow"",""url"":""http://www.airnow.gov/""},{""name"":""California Air Resources Board""}]"
TK Gregg,Spartanburg,US,2017-02-28T08:00:00.000Z,2017-02-28T03:00:00-05:00,pm25,14.9,µg/m³,34.955601,-81.924797,"[{""name"":""US EPA AirNow"",""url"":""http://www.airnow.gov/""},{""name"":""South Carolina DHEC""}]"
Cannons Lane,Louisville,US,2017-02-28T08:00:00.000Z,2017-02-28T03:00:00-05:00,pm25,6.2,µg/m³,38.2286,-85.6544,"[{""name"":""US EPA AirNow"",""url"":""http://www.airnow.gov/""},{""name"":""Louisville Metro Air Pollution Control District""}]"
V_VIEW,Miami-Fort Lauderdale-Miami Beach,US,2017-02-28T08:00:00.000Z,2017-02-28T03:00:00-05:00,pm25,7.1,µg/m³,26.0732,-80.3386,"[{""name"":""US EPA AirNow"",""url"":""http://www.airnow.gov/""},{""name"":""Broward County Pollution Prevention  Division""}]"
Sipayik-ME,WASHINGTON,US,2017-02-28T08:00:00.000Z,2017-02-28T03:00:00-05:00,pm25,6.9,µg/m³,44.9636,-67.060799,"[{""name"":""US EPA AirNow"",""url"":""http://www.airnow.gov/""},{""name"":""Tribal Environmental Exchange Network""}]"
Rahway PM,New York-Northern New Jersey-Long Island,US,2017-02-28T08:00:00.000Z,2017-02-28T03:00:00-05:00,pm25,11.7,µg/m³,40.603943,-74.276176,"[{""name"":""US EPA AirNow"",""url"":""http://www.airnow.gov/""},{""name"":""New Jersey Dept. of Environmental Protection""}]"
"Waterloo, Water Towe",Waterloo-Cedar Falls,US,2017-02-28T08:00:00.000Z,2017-02-28T02:00:00-06:00,pm25,13,µg/m³,42.5014,-92.315804,"[{""name"":""US EPA AirNow"",""url"":""http://www.airnow.gov/""},{""name"":""Iowa DNR""}]"
Dayton-W Main,COLUMBIA,US,2017-02-28T08:00:00.000Z,2017-02-28T00:00:00-08:00,pm25,1.1,µg/m³,46.318,-117.985,"[{""name"":""US EPA AirNow"",""url"":""http://www.airnow.gov/""},{""name"":""Washington Department of Ecology""}]"
Oakland West,San Francisco-Oakland-Fremont,US,2017-02-28T08:00:00.000Z,2017-02-28T00:00:00-08:00,pm25,6,µg/m³,37.8148,-122.282402,"[{""name"":""US EPA AirNow"",""url"":""http://www.airnow.gov/""},{""name"":""San Francisco Bay Area AQMD""}]"
Ft. Collins - CSU Fa,LARIMER,US,2017-02-28T08:00:00.000Z,2017-02-28T01:00:00-07:00,pm25,0.7,µg/m³,40.571259,-105.079765,"[{""name"":""US EPA AirNow"",""url"":""http://www.airnow.gov/""},{""name"":""Colorado Department of Public Health and Environment""}]"
Bloomington,Bloomington,US,2017-02-28T08:00:00.000Z,2017-02-28T03:00:00-05:00,pm25,5.8,µg/m³,39.159372,-86.504747,"[{""name"":""US EPA AirNow"",""url"":""http://www.airnow.gov/""},{""name"":""Indiana Dept. of Environmental Management 2""}]"
Newark Firehouse,New York-Northern New Jersey-Long Island,US,2017-02-28T08:00:00.000Z,2017-02-28T03:00:00-05:00,pm25,12.4,µg/m³,40.720989,-74.192894,"[{""name"":""US EPA AirNow"",""url"":""http://www.airnow.gov/""},{""name"":""New Jersey Dept. of Environmental Protection""}]"
Lima,Lima,US,2017-02-28T08:00:00.000Z,2017-02-28T03:00:00-05:00,pm25,1.9,µg/m³,40.771,-84.0539,"[{""name"":""US EPA AirNow"",""url"":""http://www.airnow.gov/""},{""name"":""Ohio EPA-DAPC""}]"
Corsicana C1051,Corsicana,US,2017-02-28T08:00:00.000Z,2017-02-28T02:00:00-06:00,pm25,18.4,µg/m³,32.0319,-96.3992,"[{""name"":""US EPA AirNow"",""url"":""http://www.airnow.gov/""},{""name"":""Texas Commission on Environmental Quality""}]"
Spokane-Augusta Ave,Spokane,US,2017-02-28T08:00:00.000Z,2017-02-28T00:00:00-08:00,pm25,4,µg/m³,47.672501,-117.364899,"[{""name"":""US EPA AirNow"",""url"":""http://www.airnow.gov/""},{""name"":""Washington Department of Ecology""}]"
Rossiter Pump House,Helena,US,2017-02-28T08:00:00.000Z,2017-02-28T01:00:00-07:00,pm25,21.7,µg/m³,46.6588,-112.0131,"[{""name"":""US EPA AirNow"",""url"":""http://www.airnow.gov/""},{""name"":""Montana DEQ""}]"
Sandpoint U of I,BONNER,US,2017-02-28T08:00:00.000Z,2017-02-28T00:00:00-08:00,pm25,2,µg/m³,48.291821,-116.556557,"[{""name"":""US EPA AirNow"",""url"":""http://www.airnow.gov/""},{""name"":""Idaho Department of Environmental Quality""}]"
